"","lon","lat","MunicipalityID","COD_DANE","Department Name","Municipality Name","Rural Population","Urban Population","Total Population"
"1","-75.45215189","5.795307338","11832",5002,"ANTIOQUIA","ABEJORRAL","13978","6271","20249"
"2","-73.18507643","8.000049161","12110",54003,"NORTE DE SANTANDER","ABREGO","20119","14373","34492"
"3","-76.09037117","6.625740004","11844",5004,"ANTIOQUIA","ABRIAQUI","1832","858","2690"
"4","-73.78019959","4.009280924","12026",50006,"META","ACACIAS","9444","44775","54219"
"5","-77.30205342","8.406570601","12331",27006,"CHOCO","ACANDI","5348","5107","10455"
"6","-75.97069794","1.68855115","12688",41006,"HUILA","ACEVEDO","21828","4556","26384"
"7","-74.50647611","8.585479546","11654",13006,"BOLIVAR","ACHI","16320","3324","19644"
"8","-75.74884275","2.283488874","11874",41013,"HUILA","AGRADO","3903","4586","8489"
"9","-74.68999905","4.358418893","11975",25001,"CUNDINAMARCA","AGUA DE DIOS","2750","9072","11822"
"10","-73.62439764","8.243963259","11891",20011,"CESAR","AGUACHICA","13296","69039","82335"
"11","-73.52746038","6.160192527","11979",68013,"SANTANDER","AGUADA","1884","233","2117"
"12","-75.48740396","5.590258673","12034",17013,"CALDAS","AGUADAS","14041","10267","24308"
"13","-72.5716454","5.099226116","12099",85010,"CASANARE","AGUAZUL","7916","20411","28327"
"14","-73.26929475","9.930926218","12497",20013,"CESAR","AGUSTIN CODAZZI","15404","38565","53969"
"15","-75.38144319","3.253804021","12418",41016,"HUILA","AIPE","7639","12144","19783"
"16","-74.46906841","4.884489565","12577",25019,"CUNDINAMARCA","ALBAN","4361","1591","5952"
"17","-73.8645864","5.770643249","11659",68020,"SANTANDER","ALBANIA","4035","438","4473"
"18","-75.81448044","4.651210452","12032",76020,"VALLE DEL CAUCA","ALCALA","8265","9303","17568"
"19","-77.73490699","0.912045058","12557",52022,"NARINO","ALDANA","5079","1771","6850"
"20","-75.11498943","6.35254241","11965",5021,"ANTIOQUIA","ALEJANDRIA","1920","1896","3816"
"21","-74.11994676","10.26620174","11798",47030,"MAGDALENA","ALGARROBO","4414","7364","11778"
"22","-75.2334172","2.544756782","11989",41020,"HUILA","ALGECIRAS","9587","13840","23427"
"23","-76.88272375","1.90887056","12251",19022,"CAUCA","ALMAGUER","18812","1651","20463"
"24","-73.41130827","4.92260471","12476",15022,"BOYACA","ALMEIDA","1985","309","2294"
"25","-74.96218186","3.37460345","12585",73024,"TOLIMA","ALPUJARRA","3352","1822","5174"
"26","-75.80446038","2.054972968","11790",41026,"HUILA","ALTAMIRA","1175","2416","3591"
"27","-77.07600707","5.629387079","12385",27025,"CHOCO","ALTO BAUDO","22739","6222","28961"
"28","-74.23005065","8.738882048","12115",13030,"BOLIVAR","ALTOS DEL ROSARIO","5984","5373","11357"
"29","-75.0141733","4.571737631","12483",73026,"TOLIMA","ALVARADO","5814","3158","8972"
"30","-75.7213444","6.023782944","12094",5030,"ANTIOQUIA","AMAGA","13085","14070","27155"
"31","-74.99203561","6.979028692","11572",5031,"ANTIOQUIA","AMALFI","9589","10936","20525"
"32","-74.83491515","4.806445721","12686",73030,"TOLIMA","AMBALEMA","1864","5810","7674"
"33","-74.54687502","4.543652027","12578",25035,"CUNDINAMARCA","ANAPOIMA","6638","4865","11503"
"34","-77.56931136","1.273410927","12119",52036,"NARINO","ANCUYA","7119","1872","8991"
"35","-76.14317889","4.113758276","12330",76036,"VALLE DEL CAUCA","ANDALUCIA","4078","14058","18136"
"36","-75.96883112","5.601480103","11852",5034,"ANTIOQUIA","ANDES","22415","19176","41591"
"37","-75.72765722","6.123186721","12253",5036,"ANTIOQUIA","ANGELOPOLIS","3491","4150","7641"
"38","-75.36101888","6.858287079","11635",5038,"ANTIOQUIA","ANGOSTURA","10423","2096","12519"
"39","-74.48412091","4.776206554","12627",25040,"CUNDINAMARCA","ANOLAIMA","9343","3967","13310"
"40","-75.12182054","7.177462831","12024",5040,"ANTIOQUIA","ANORI","9736","5280","15016"
"41","-75.79168868","5.204270289","12195",17042,"CALDAS","ANSERMA","14763","20334","35097"
"42","-76.09142601","4.78415938","11851",76041,"VALLE DEL CAUCA","ANSERMANUEVO","8980","11712","20692"
"43","-75.92121123","6.305319954","11845",5044,"ANTIOQUIA","ANZA","6260","1155","7415"
"44","-75.22090727","4.623652228","11818",73043,"TOLIMA","ANZOATEGUI","14377","2045","16422"
"45","-76.57313265","7.904052362","12610",5045,"ANTIOQUIA","APARTADO","19518","111887","131405"
"46","-76.03788967","5.121155229","11963",66045,"RISARALDA","APIA","10358","7156","17514"
"47","-74.59773307","4.509010325","12526",25599,"CUNDINAMARCA","APULO","4670","3152","7822"
"48","-72.9019151","5.403409973","11997",15047,"BOYACA","AQUITANIA","10762","5830","16592"
"49","-73.91346719","10.62245741","11683",47053,"MAGDALENA","ARACATACA","15626","19894","35520"
"50","-75.50983745","5.255188466","11762",17050,"CALDAS","ARANZAZU","5948","6867","12815"
"51","-73.02877079","6.704501268","11824",68051,"SANTANDER","ARATOCA","6188","2207","8395"
"52","-70.54598851","6.795668129","12037",81001,"ARAUCA","ARAUCA","12923","62634","75557"
"53","-71.2966662","6.764328096","12305",81065,"ARAUCA","ARAUQUITA","21667","15078","36745"
"54","-74.41464222","4.212504192","11914",25053,"CUNDINAMARCA","ARBELAEZ","7107","4699","11806"
"55","-77.16345944","1.494103107","12213",52051,"NARINO","ARBOLEDA","6414","1029","7443"
"56","-72.89673244","7.59050211","11719",54051,"NORTE DE SANTANDER","ARBOLEDAS","6971","2299","9270"
"57","-76.42507609","8.645919494","11620",5051,"ANTIOQUIA","ARBOLETES","18525","12213","30738"
"58","-73.46781846","5.723895303","12299",15051,"BOYACA","ARCABUCO","3402","1796","5198"
"59","-74.13512013","8.19705314","12414",13042,"BOLIVAR","ARENAL","11451","3963","15414"
"60","-75.1215491","5.704983804","12228",5055,"ANTIOQUIA","ARGELIA","7250","2841","10091"
"61","-74.09745802","9.825701692","12023",47058,"MAGDALENA","ARIGUANI","12734","18313","31047"
"62","-75.36890957","10.13519664","12584",13052,"BOLIVAR","ARJONA","12956","47451","60407"
"63","-75.82478798","6.162439993","11583",5059,"ANTIOQUIA","ARMENIA","3434","1762","5196"
"64","-74.88129863","4.988725169","12242",73055,"TOLIMA","ARMERO","4200","8864","13064"
"65","-75.04990136","10.19650271","11595",13062,"BOLIVAR","ARROYOHONDO","3588","5216","8804"
"66","-73.97883443","9.489855671","11597",20032,"CESAR","ASTREA","9530","8864","18394"
"67","-75.53123033","3.409733195","11933",73067,"TOLIMA","ATACO","17340","4602","21942"
"68","-76.60933839","5.565955479","12255",27050,"CHOCO","ATRATO","5073","2488","7561"
"69","-75.04607332","8.241418495","12189",23068,"CORDOBA","AYAPEL","22086","20456","42542"
"70","-76.27265237","5.476825385","12633",27073,"CHOCO","BAGADO","6082","2372","8454"
"71","-77.36170964","6.304711755","11994",27075,"CHOCO","BAHIA SOLANO","4864","4230","9094"
"72","-77.23421814","4.988572344","12143",27077,"CHOCO","BAJO BAUDO","13752","2623","16375"
"73","-75.98727322","4.917794976","12257",66075,"RISARALDA","BALBOA","4544","1809","6353"
"74","-74.92382426","10.78507286","12237",8078,"ATLANTICO","BARANOA","8731","42840","51571"
"75","-74.98730941","3.164918265","11682",41078,"HUILA","BARAYA","4606","4573","9179"
"76","-78.13846538","1.533458245","11639",52079,"NARINO","BARBACOAS","18668","11602","30270"
"77","-75.3432533","6.430761902","12021",5079,"ANTIOQUIA","BARBOSA","23831","18608","42439"
"78","-73.2338683","6.645561905","11883",68079,"SANTANDER","BARICHARA","4997","2654","7651"
"79","-72.99366863","4.474491368","12400",50110,"META","BARRANCA DE UPIA","1010","2187","3197"
"80","-73.78312723","7.044181963","11991",68081,"SANTANDER","BARRANCABERMEJA","19248","170810","190058"
"81","-72.70491375","10.95552258","12169",44078,"LA GUAJIRA","BARRANCAS","13273","13056","26329"
"82","-74.16284648","8.818492433","12570",13074,"BOLIVAR","BARRANCO DE LOBA","10235","4913","15148"
"83","-69.30453657","3.240169424","12048",94343,"GUAINIA","BARRANCO MINAS","4384","0","4384"
"84","-74.83730623","10.98264998","11778",8001,"ATLANTICO","BARRANQUILLA","4047","1142312","1146359"
"85","-73.24521489","9.732536753","12369",20045,"CESAR","BECERRIL","4221","9720","13941"
"86","-75.85169898","4.981160487","11754",17088,"CALDAS","BELALCAZAR","6845","5027","11872"
"87","-72.92481063","5.97630555","12124",15087,"BOYACA","BELEN","4853","4188","9041"
"88","-76.80729464","7.362606901","11907",27615,"CHOCO","BELEN DE BAJIRA","7676","6231","13907"
"89","-75.93257736","1.46012951","12571",18094,"CAQUETA","BELEN DE LOS ANDAQUIES","5525","5556","11081"
"90","-75.91387635","5.194985294","11850",66088,"RISARALDA","BELEN DE UMBRIA","14893","12824","27717"
"91","-75.60205263","6.356132892","11729",5088,"ANTIOQUIA","BELLO","13452","358139","371591"
"92","-75.65686908","6.624096899","12050",5086,"ANTIOQUIA","BELMIRA","4505","1683","6188"
"93","-74.78046039","4.709592426","12220",25086,"CUNDINAMARCA","BELTRAN","1597","350","1947"
"94","-73.12605761","5.185133957","11961",15090,"BOYACA","BERBEO","1501","412","1913"
"95","-76.03045348","5.71390082","12602",5091,"ANTIOQUIA","BETANIA","6436","3810","10246"
"96","-72.87078257","5.894272329","12206",15092,"BOYACA","BETEITIVA","2084","395","2479"
"97","-73.39157675","6.996235495","11972",68092,"SANTANDER","BETULIA","4167","1183","5350"
"98","-74.55203148","4.828949743","11855",25095,"CUNDINAMARCA","BITUIMA","2240","417","2657"
"99","-72.64308686","6.30736249","12656",15097,"BOYACA","BOAVITA","5935","2861","8796"
"100","-72.68839621","7.602173448","12134",54099,"NORTE DE SANTANDER","BOCHALEMA","4242","2341","6583"
"101","-74.21445363","4.288578982","12295",11001,"CUNDINAMARCA","SANTAFE DE BOGOTA","15606","6824510","6840116"
"102","-74.33705701","4.687190139","12233",25099,"CUNDINAMARCA","BOJACA","2079","6800","8879"
"103","-77.09710726","6.481317454","11942",27099,"CHOCO","BOJAYA","5369","4572","9941"
"104","-74.15038368","6.098690188","11777",68101,"SANTANDER","BOLIVAR","12581","1415","13996"
"105","-73.8885667","9.929216195","12117",20060,"CESAR","BOSCONIA","2990","27895","30885"
"106","-73.40744922","5.40370253","12156",15104,"BOYACA","BOYACA","4641","433","5074"
"107","-75.5735733","7.110453766","11616",5107,"ANTIOQUIA","BRICENO","6610","2173","8783"
"108","-73.13278616","7.137159365","12589",68001,"SANTANDER","BUCARAMANGA","7296","509216","516512"
"109","-72.94723373","8.060009339","12286",54109,"NORTE DE SANTANDER","BUCARASICA","4011","550","4561"
"110","-77.08586349","3.589503874","12629",76109,"VALLE DEL CAUCA","BUENAVENTURA","35847","292947","328794"
"111","-74.95587475","9.316463014","11599",70110,"SUCRE","BUENAVISTA","1706","7256","8962"
"112","-76.70311453","2.993271672","11749",19110,"CAUCA","BUENOS AIRES","25029","1932","26961"
"113","-77.17220371","1.338141165","12468",52110,"NARINO","BUESACO","17547","4686","22233"
"114","-76.11854636","3.874773961","11934",76111,"VALLE DEL CAUCA","GUADALAJARA DE BUGA","17000","99893","116893"
"115","-76.1279457","4.195744688","11758",76113,"VALLE DEL CAUCA","BUGALAGRANDE","10101","11500","21601"
"116","-75.9170074","6.81199492","12159",5113,"ANTIOQUIA","BURITICA","5460","1495","6955"
"117","-72.89696245","5.811485191","11924",15114,"BOYACA","BUSBANZA","584","301","885"
"118","-73.26765973","6.564402352","12673",68121,"SANTANDER","CABRERA","1458","466","1924"
"119","-72.98028336","4.285325544","12333",50124,"META","CABUYARO","2234","1426","3660"
"120","-67.62845841","3.298319413","12406",94886,"GUAINIA","CACAHUAL","1592","0","1592"
"121","-75.23403347","7.666670501","12595",5120,"ANTIOQUIA","CACERES","22736","6209","28945"
"122","-74.48706652","4.704235419","11789",25123,"CUNDINAMARCA","CACHIPAY","6795","3200","9995"
"123","-73.19647695","7.65717673","12304",54128,"NORTE DE SANTANDER","CACHIRA","9125","1494","10619"
"124","-72.67831141","7.250459456","12479",54125,"NORTE DE SANTANDER","CACOTA","1841","742","2583"
"125","-75.99146448","6.425562422","12165",5125,"ANTIOQUIA","CAICEDO","6236","1450","7686"
"126","-75.85576278","4.311062812","12227",76122,"VALLE DEL CAUCA","CAICEDONIA","6807","24140","30947"
"127","-75.10930905","8.774293247","12679",70124,"SUCRE","CAIMITO","8110","2938","11048"
"128","-75.51860305","4.424673105","11615",73124,"TOLIMA","CAJAMARCA","10428","9361","19789"
"129","-76.75186357","2.648972723","12681",19130,"CAUCA","CAJIBIO","33120","1586","34706"
"130","-74.0526047","4.912809545","12453",25126,"CUNDINAMARCA","CAJICA","18280","27111","45391"
"131","-75.00247777","10.21828821","11636",13140,"BOLIVAR","CALAMAR","9526","11196","20722"
"132","-75.6672124","4.461360628","11842",63130,"QUINDIO","CALARCA","17541","56200","73741"
"133","-75.63908383","6.039077571","12503",5129,"ANTIOQUIA","CALDAS","15303","52696","67999"
"134","-76.50838273","2.815945272","12366",19137,"CAUCA","CALDONO","29548","1358","30906"
"135","-76.59957732","3.399817254","12601",76001,"VALLE DEL CAUCA","CALI","36737","2083171","2119908"
"136","-72.99737648","7.407450141","12445",68132,"SANTANDER","CALIFORNIA","944","849","1793"
"137","-76.63905753","3.954522198","12327",76126,"VALLE DEL CAUCA","CALIMA","6326","9171","15497"
"138","-76.39808153","3.069919189","11605",19142,"CAUCA","CALOTO","32773","4148","36921"
"139","-75.31522406","7.034269608","12160",5134,"ANTIOQUIA","CAMPAMENTO","7238","2450","9688"
"140","-74.900319","10.37991127","11587",8137,"ATLANTICO","CAMPO DE LA CRUZ","2640","16467","19107"
"141","-75.37203228","2.655731227","11959",41132,"HUILA","CAMPOALEGRE","8200","23986","32186"
"142","-73.16713403","4.977326572","12359",15135,"BOYACA","CAMPOHERMOSO","3212","853","4065"
"143","-76.25876337","8.748727334","11658",23090,"CORDOBA","CANALETE","13905","3410","17315"
"144","-76.03076503","6.837605167","12055",5138,"ANTIOQUIA","CANASGORDAS","11384","5432","16816"
"145","-74.88636788","10.47412924","12655",8141,"ATLANTICO","CANDELARIA","3254","8781","12035"
"146","-74.12968824","7.229195989","12539",13160,"BOLIVAR","CANTAGALLO","4614","3197","7811"
"147","-74.54398218","5.365503435","12177",25148,"CUNDINAMARCA","CAPARRAPI","13980","2503","16483"
"148","-72.70351156","6.500306455","12096",68147,"SANTANDER","CAPITANEJO","2907","3245","6152"
"149","-73.95722033","4.387062072","11740",25151,"CUNDINAMARCA","CAQUEZA","10032","6410","16442"
"150","-74.74194128","6.326497892","12236",5142,"ANTIOQUIA","CARACOLI","2020","2835","4855"
"151","-75.66962632","5.541438123","12185",5145,"ANTIOQUIA","CARAMANTA","2924","2586","5510"
"152","-72.59324839","6.647990147","12348",68152,"SANTANDER","CARCASI","4588","612","5200"
"153","-76.66269624","7.800925974","11673",5147,"ANTIOQUIA","CAREPA","14020","29105","43125"
"154","-74.76776731","4.107711303","11910",73148,"TOLIMA","CARMEN DE APICALA","2117","6277","8394"
"155","-73.95330127","5.332254481","11741",25154,"CUNDINAMARCA","CARMEN DE CARUPA","6802","1689","8491"
"156","-75.26867021","5.959759406","11912",5148,"ANTIOQUIA","EL CARMEN DE VIBORAL","18281","22731","41012"
"157","-76.99346547","7.019041682","12460",27150,"CHOCO","CARMEN DEL DARIEN","3999","1112","5111"
"158","-75.32130738","6.748060853","11947",5150,"ANTIOQUIA","CAROLINA","944","3027","3971"
"159","-75.46639117","10.421995","12310",13001,"BOLIVAR","CARTAGENA","50317","842228","892545"
"160","-74.60588614","0.852454891","11853",18150,"CAQUETA","CARTAGENA DEL CHAIRA","19252","9426","28678"
"161","-75.97450791","4.686013809","12474",76147,"VALLE DEL CAUCA","CARTAGO","2830","122001","124831"
"162","-71.33787925","1.020809801","12043",97161,"VAUPES","CARURU","2607","635","3242"
"163","-75.21381751","5.002980905","12667",73152,"TOLIMA","CASABIANCA","5406","1503","6909"
"164","-73.53548348","3.793866001","12461",50150,"META","CASTILLA LA NUEVA","3898","3169","7067"
"165","-75.0134869","7.842802572","12407",5154,"ANTIOQUIA","CAUCASIA","18064","69468","87532"
"166","-72.94909193","6.733753854","12383",68160,"SANTANDER","CEPITA","1541","481","2022"
"167","-75.82181985","8.882079088","12272",23162,"CORDOBA","CERETE","36823","47094","83917"
"168","-72.9912605","5.936477225","12007",15162,"BOYACA","CERINZA","2810","1502","4312"
"169","-72.67103103","6.89069591","12451",68162,"SANTANDER","CERRITO","3841","2478","6319"
"170","-74.82646913","10.29371417","12285",47161,"MAGDALENA","CERRO SAN ANTONIO","4076","4243","8319"
"171","-76.59112854","5.365381833","12437",27160,"CHOCO","CERTEGUI","4367","5157","9524"
"172","-77.31677903","1.437542785","12044",52240,"NARINO","CHACHAGUI","6674","6118","12792"
"173","-74.65953691","4.945544167","11864",25168,"CUNDINAMARCA","CHAGUANI","3297","804","4101"
"174","-75.3225761","9.575448183","12041",70230,"SUCRE","CHALAN","1651","2537","4188"
"175","-72.88951092","5.192375031","11911",85015,"CASANARE","CHAMEZA","661","1159","1820"
"176","-75.62452752","3.7370037","11861",73168,"TOLIMA","CHAPARRAL","21374","25338","46712"
"177","-73.1758713","6.175128807","11964",68167,"SANTANDER","CHARALA","5394","6028","11422"
"178","-73.00714336","7.24488646","12358",68169,"SANTANDER","CHARTA","2559","583","3142"
"179","-74.05847064","4.844513601","12394",25175,"CUNDINAMARCA","CHIA","24055","73841","97896"
"180","-76.63891542","7.64417482","12392",5172,"ANTIOQUIA","CHIGORODO","9280","49631","58911"
"181","-75.63809664","9.095372067","12145",23168,"CORDOBA","CHIMA","10824","2815","13639"
"182","-73.77037043","9.219281516","11949",20175,"CESAR","CHIMICHAGUA","19618","11375","30993"
"183","-72.6041309","7.55544869","12653",54172,"NORTE DE SANTANDER","CHINACOTA","5227","9557","14784"
"184","-73.37146801","5.179146696","12089",15172,"BOYACA","CHINAVITA","2557","1184","3741"
"185","-75.70417969","4.97522788","11825",17174,"CALDAS","CHINCHINA","8383","45113","53496"
"186","-75.36127402","9.008150436","12192",23182,"CORDOBA","CHINU","22388","20886","43274"
"187","-74.07538369","4.414811518","12291",25178,"CUNDINAMARCA","CHIPAQUE","6054","2341","8395"
"188","-73.65391972","6.063120116","11986",68179,"SANTANDER","CHIPATA","4500","651","5151"
"189","-73.83847155","5.6136228","12199",15176,"BOYACA","CHIQUINQUIRA","8288","47498","55786"
"190","-73.49619417","5.62009477","11604",15232,"BOYACA","CHIQUIZA","5970","103","6073"
"191","-73.54415005","9.410130383","11913",20178,"CESAR","CHIRIGUANA","8684","13462","22146"
"192","-72.44230505","6.654567082","11881",15180,"BOYACA","CHISCAS","4337","1035","5372"
"193","-72.46774288","6.07790023","12238",15183,"BOYACA","CHITA","8913","1931","10844"
"194","-72.5507277","7.032020283","11894",54174,"NORTE DE SANTANDER","CHITAGA","6771","3408","10179"
"195","-73.45760439","5.961668857","12604",15185,"BOYACA","CHITARAQUE","5644","1067","6711"
"196","-73.28469645","5.540845824","12067",15187,"BOYACA","CHIVATA","3374","1675","5049"
"197","-74.54935502","10.08785424","12482",47170,"MAGDALENA","CHIBOLO","6017","10430","16447"
"198","-73.3739149","4.839487811","11935",15236,"BOYACA","CHIVOR","1714","518","2232"
"199","-73.93903897","4.566877637","12658",25181,"CUNDINAMARCA","CHOACHI","7715","3450","11165"
"200","-73.70005666","5.104010331","11663",25183,"CUNDINAMARCA","CHOCONTA","10292","9220","19512"
"201","-74.6909509","9.232260491","12386",13188,"BOLIVAR","CICUCO","4275","6819","11094"
"202","-74.04297466","10.88913943","12438",47189,"MAGDALENA","CIENAGA","14361","87624","101985"
"203","-75.60555904","8.830220764","11609",23189,"CORDOBA","CIENAGA DE ORO","32307","20838","53145"
"204","-73.29745315","5.363323839","12504",15189,"BOYACA","CIENAGA","3988","1254","5242"
"205","-74.17447717","6.42830271","12372",68190,"SANTANDER","CIMITARRA","21521","12772","34293"
"206","-75.68536142","4.59939743","12371",63190,"QUINDIO","CIRCASIA","7410","20032","27442"
"207","-75.09414332","6.545065437","12216",5190,"ANTIOQUIA","CISNEROS","1878","7804","9682"
"208","-76.05590603","5.844708893","12422",5101,"ANTIOQUIA","BOLIVAR","11968","16311","28279"
"209","-75.30711367","10.53777468","12664",13222,"BOLIVAR","CLEMENCIA","2894","8820","11714"
"210","-75.16983352","6.005794356","12463",5197,"ANTIOQUIA","COCORNA","11126","3993","15119"
"211","-74.95964869","4.336128519","12674",73200,"TOLIMA","COELLO","7484","1533","9017"
"212","-73.99488393","5.084728783","11696",25200,"CUNDINAMARCA","COGUA","12920","5356","18276"
"213","-74.72033699","3.39928973","11750",41206,"HUILA","COLOMBIA","8939","2234","11173"
"214","-77.08715176","1.639494873","11792",52203,"NARINO","COLON","8384","1274","9658"
"215","-75.36232707","9.511758313","11702",70204,"SUCRE","COLOSO","3149","3065","6214"
"216","-73.35743186","5.668674239","11948",15204,"BOYACA","COMBITA","12147","834","12981"
"217","-72.63435441","6.770203828","11667",68207,"SANTANDER","CONCEPCION","3410","2498","5908"
"218","-75.91538991","6.063017192","11811",5209,"ANTIOQUIA","CONCORDIA","13270","8150","21420"
"219","-76.48949619","5.080651117","12004",27205,"CHOCO","CONDOTO","4005","9093","13098"
"220","-73.2099106","6.348763307","12065",68209,"SANTANDER","CONFINES","2390","363","2753"
"221","-77.47820101","1.226516159","12493",52207,"NARINO","CONSACA","8588","1699","10287"
"222","-77.54652123","0.933832253","12018",52210,"NARINO","CONTADERO","4757","1910","6667"
"223","-73.48398357","6.293180591","12197",68211,"SANTANDER","CONTRATACION","1069","2952","4021"
"224","-73.24385676","8.793772687","11971",54206,"NORTE DE SANTANDER","CONVENCION","10529","6076","16605"
"225","-75.51865775","6.352178021","11820",5212,"ANTIOQUIA","COPACABANA","8405","52829","61234"
"226","-74.0613133","5.430736566","11799",15212,"BOYACA","COPER","3490","711","4201"
"227","-74.8932695","9.537874821","12631",13212,"BOLIVAR","CORDOBA","9669","3444","13113"
"228","-76.21154304","3.136683037","11576",19212,"CAUCA","CORINTO","16157","12153","28310"
"229","-72.98807951","6.228408989","12635",68217,"SANTANDER","COROMORO","6463","913","7376"
"230","-75.25247965","9.203820507","12011",70215,"SUCRE","COROZAL","12354","45402","57756"
"231","-72.87519062","5.790688351","12378",15215,"BOYACA","CORRALES","971","1573","2544"
"232","-74.14335179","4.776013577","12508",25214,"CUNDINAMARCA","COTA","9122","10787","19909"
"233","-75.77752688","9.055480772","12095",23300,"CORDOBA","COTORRA","11719","3394","15113"
"234","-72.77631854","6.497179141","12622",15218,"BOYACA","COVARACHIA","2828","496","3324"
"235","-75.67484826","9.376434729","11877",70221,"SUCRE","COVENAS","8210","3121","11331"
"236","-75.17398645","3.727802536","11880",73217,"TOLIMA","COYAIMA","23832","4224","28056"
"237","-70.10032898","6.328157243","11923",81220,"ARAUCA","CRAVO NORTE","1270","2391","3661"
"238","-77.77914551","0.881450918","12661",52224,"NARINO","CUASPUD","6098","2003","8101"
"239","-72.21172442","6.856343022","12374",15223,"BOYACA","CUBARA","4876","1738","6614"
"240","-74.11422113","3.75884138","11804",50223,"META","CUBARRAL","2185","2967","5152"
"241","-73.49011259","5.515531055","12142",15224,"BOYACA","CUCAITA","2972","1596","4568"
"242","-73.80756592","5.21625914","12118",25224,"CUNDINAMARCA","CUCUNUBA","5857","1156","7013"
"243","-72.52179113","8.073408335","12376",54001,"NORTE DE SANTANDER","CUCUTA","20012","567664","587676"
"244","-72.8240901","7.470753632","12275",54223,"NORTE DE SANTANDER","CUCUTILLA","7159","1288","8447"
"245","-72.95924894","5.551899463","12074",15226,"BOYACA","CUITIVA","1804","207","2011"
"246","-73.32251818","4.220168239","12607",50226,"META","CUMARAL","5895","10680","16575"
"247","-69.53041591","4.218912514","12499",99773,"VICHADA","CUMARIBO","24406","4312","28718"
"248","-77.96741309","0.929725556","12036",52227,"NARINO","CUMBAL","24284","6712","30996"
"249","-77.59295483","1.676805554","12670",52233,"NARINO","CUMBITARA","10108","1317","11425"
"250","-74.70695335","3.980310932","12226",73226,"TOLIMA","CUNDAY","8363","2326","10689"
"251","-76.03039949","1.098600113","12063",18205,"CAQUETA","CURILLO","4851","6270","11121"
"252","-73.04601392","6.606302322","11866",68229,"SANTANDER","CURITI","8117","3347","11464"
"253","-73.49586275","9.214602127","11662",20228,"CESAR","CURUMANI","9311","18249","27560"
"254","-76.32476978","6.995846201","11612",5234,"ANTIOQUIA","DABEIBA","15480","8604","24084"
"255","-76.72482399","3.642440607","12591",76233,"VALLE DEL CAUCA","DAGUA","26963","8307","35270"
"256","-73.44315927","11.09529337","12433",44090,"LA GUAJIRA","DIBULLA","18704","3094","21798"
"257","-72.9589147","10.9021345","11728",44098,"LA GUAJIRA","DISTRACCION","7979","3983","11962"
"258","-74.8462394","3.575829209","12175",73236,"TOLIMA","DOLORES","5506","3658","9164"
"259","-75.36861907","6.498135085","12654",5237,"ANTIOQUIA","DON MATIAS","6304","11397","17701"
"260","-75.68980949","4.825197986","12518",66170,"RISARALDA","DOSQUEBRADAS","9457","169844","179301"
"261","-73.08988809","5.863611731","12548",15238,"BOYACA","DUITAMA","14403","93003","107406"
"262","-72.7002872","7.719156503","12150",54239,"NORTE DE SANTANDER","DURANIA","2308","1981","4289"
"263","-75.80408516","6.323917711","11649",5240,"ANTIOQUIA","EBEJICO","10383","2128","12511"
"264","-76.12175236","4.891635217","11766",76243,"VALLE DEL CAUCA","EL AGUILA","8218","2471","10689"
"265","-74.67892873","7.744438902","12154",5250,"ANTIOQUIA","EL BAGRE","20625","25395","46020"
"266","-74.00047651","9.10623179","11732",47245,"MAGDALENA","EL BANCO","21475","33380","54855"
"267","-76.30637177","4.760833645","12668",76246,"VALLE DEL CAUCA","EL CAIRO","6444","2912","9356"
"268","-73.74433623","4.354278236","12434",50245,"META","EL CALVARIO","1535","753","2288"
"269","-76.79074976","5.303888494","12266",27135,"CHOCO","EL CANTON DEL SAN PABLO","3722","2491","6213"
"270","-73.35325648","8.847668484","12480",54245,"NORTE DE SANTANDER","EL CARMEN","13743","2634","16377"
"271","-75.16108225","9.696131108","12632",13244,"BOLIVAR","EL CARMEN DE BOLIVAR","18529","49423","67952"
"272","-73.96442115","3.577227501","12536",50251,"META","EL CASTILLO","5042","1833","6875"
"273","-76.22355287","3.677383571","11751",76248,"VALLE DEL CAUCA","EL CERRITO","21296","33302","54598"
"274","-77.91394619","2.250905723","11733",52250,"NARINO","EL CHARCO","18965","6768","25733"
"275","-72.43577754","6.328383917","11779",15244,"BOYACA","EL COCUY","2902","2680","5582"
"276","-74.4464332","4.541724787","11627",25245,"CUNDINAMARCA","EL COLEGIO","12794","7636","20430"
"277","-73.93327883","10.18543726","11724",20238,"CESAR","EL COPEY","6459","18512","24971"
"278","-75.28588157","1.708614421","12188",18247,"CAQUETA","EL DONCELLO","8168","13379","21547"
"279","-73.79426463","3.654326113","12212",50270,"META","EL DORADO","2015","1276","3291"
"280","-76.3913628","4.490735573","11623",76250,"VALLE DEL CAUCA","EL DOVIO","4152","5396","9548"
"281","-72.78309772","-2.077631442","12014",91263,"AMAZONAS","EL ENCANTO","4376","0","4376"
"282","-72.49774757","6.467010223","11954",15248,"BOYACA","EL ESPINO","2767","1230","3997"
"283","-73.5295868","6.248574051","12559",68245,"SANTANDER","EL GUACAMAYO","1880","423","2303"
"284","-74.92768694","10.02690191","11681",13248,"BOLIVAR","EL GUAMO","3705","4121","7826"
"285","-76.99252565","4.279443424","11618",27250,"CHOCO","EL LITORAL DEL SAN JUAN","11186","1058","12244"
"286","-72.832643","10.57952718","12252",44110,"LA GUAJIRA","EL MOLINO","1845","5470","7315"
"287","-73.71509774","9.658758808","12657",20250,"CESAR","EL PASO","16992","3816","20808"
"288","-75.41793689","1.531031157","12443",18256,"CAQUETA","EL PAUJIL","8935","8699","17634"
"289","-77.46240992","1.513245818","11602",52254,"NARINO","EL PENOL","5943","908","6851"
"290","-73.94837019","8.81705647","12321",13268,"BOLIVAR","EL PENON","5095","2712","7807"
"291","-74.68313044","10.33887602","12069",47258,"MAGDALENA","EL PINON","11218","5817","17035"
"292","-73.19559248","7.516989379","12085",68255,"SANTANDER","EL PLAYON","7597","5551","13148"
"293","-74.36614509","10.67144555","11580",47268,"MAGDALENA","EL RETEN","5263","13546","18809"
"294","-71.57562216","1.926077195","12138",95025,"GUAVIARE","EL RETORNO","11715","7348","19063"
"295","-75.14838165","9.07510957","11680",70233,"SUCRE","EL ROBLE","5720","3713","9433"
"296","-74.25438286","4.858762878","12415",25260,"CUNDINAMARCA","EL ROSAL","4301","9201","13502"
"297","-77.39161674","1.786178813","11882",52256,"NARINO","EL ROSARIO","7811","3557","11368"
"298","-76.97582962","1.37985861","12088",52258,"NARINO","EL TABLON DE GOMEZ","13006","985","13991"
"299","-77.09760255","2.571150505","12176",19256,"CAUCA","EL TAMBO","40094","5710","45804"
"300","-73.05311119","8.654450077","11713",54250,"NORTE DE SANTANDER","EL TARRA","6978","3794","10772"
"301","-72.65985762","8.065442489","12562",54261,"NORTE DE SANTANDER","EL ZULIA","9004","11305","20309"
"302","-75.98057998","1.990078321","11835",41244,"HUILA","ELIAS","2234","1103","3337"
"303","-73.06736618","6.05335968","11619",68264,"SANTANDER","ENCINO","2300","411","2711"
"304","-72.70708206","6.646518032","11761",68266,"SANTANDER","ENCISO","3362","627","3989"
"305","-75.57156136","6.590011028","12408",5264,"ANTIOQUIA","ENTRERRIOS","4504","3943","8447"
"306","-75.58709654","6.145351955","11992",5266,"ANTIOQUIA","ENVIGADO","8688","165420","174108"
"307","-74.91232486","4.150887741","12469",73268,"TOLIMA","ESPINAL","20439","55787","76226"
"308","-74.35602465","4.819197871","11998",25269,"CUNDINAMARCA","FACATATIVA","11812","95640","107452"
"309","-74.99020819","5.063517557","12560",73270,"TOLIMA","FALAN","7589","1688","9277"
"310","-75.62368932","5.282661491","12340",17272,"CALDAS","FILADELFIA","8578","4159","12737"
"311","-75.70974243","4.644501605","11672",63272,"QUINDIO","FILANDIA","6434","6487","12921"
"312","-73.0507987","5.640433447","12030",15272,"BOYACA","FIRAVITOBA","4229","2087","6316"
"313","-74.86149806","4.228791653","12247",73275,"TOLIMA","FLANDES","4234","23709","27943"
"314","-75.62069244","1.742023795","12427",18001,"CAQUETA","FLORENCIA","21973","121898","143871"
"315","-72.95024915","5.828077555","12090",15276,"BOYACA","FLORESTA","3350","1534","4884"
"316","-74.01578465","5.803869637","12129",68271,"SANTANDER","FLORIAN","5072","1306","6378"
"317","-76.2153493","3.303691444","12258",76275,"VALLE DEL CAUCA","FLORIDA","14951","41057","56008"
"318","-73.08583066","7.063172262","11932",68276,"SANTANDER","FLORIDABLANCA","10824","243859","254683"
"319","-73.80666408","4.514916239","12180",25279,"CUNDINAMARCA","FOMEQUE","8056","4101","12157"
"320","-72.79317531","10.79006805","11646",44279,"LA GUAJIRA","FONSECA","7879","18952","26831"
"321","-71.89263547","6.636953065","11794",81300,"ARAUCA","FORTUL","11842","10009","21851"
"322","-73.97403828","4.301785135","12121",25281,"CUNDINAMARCA","FOSCA","5157","1497","6654"
"323","-78.61140113","2.166480818","12179",52520,"NARINO","FRANCISCO PIZARRO","5822","5207","11029"
"324","-75.69783061","5.878650484","12139",5282,"ANTIOQUIA","FREDONIA","14084","8608","22692"
"325","-75.08277317","5.172972582","12470",73283,"TOLIMA","FRESNO","16875","14442","31317"
"326","-76.31932037","6.709327579","12073",5284,"ANTIOQUIA","FRONTINO","12416","7615","20031"
"327","-73.62950799","3.341675803","11908",50287,"META","FUENTE DE ORO","5418","5654","11072"
"328","-73.89788664","10.45241414","12336",47288,"MAGDALENA","FUNDACION","7130","49856","56986"
"329","-77.34093932","0.925082025","11684",52287,"NARINO","FUNES","4593","2398","6991"
"330","-74.21787307","4.730576365","12072",25286,"CUNDINAMARCA","FUNZA","4270","57110","61380"
"331","-73.7969114","5.392471168","11860",25288,"CUNDINAMARCA","FUQUENE","4979","235","5214"
"332","-74.38333047","4.292399517","12509",25290,"CUNDINAMARCA","FUSAGASUGA","22706","86232","108938"
"333","-73.54694382","4.614130836","12466",25293,"CUNDINAMARCA","GACHALA","4025","1891","5916"
"334","-73.89988807","4.986463828","12107",25295,"CUNDINAMARCA","GACHANCIPA","5004","5882","10886"
"335","-73.56957184","5.721837305","12687",15293,"BOYACA","GACHANTIVA","2695","390","3085"
"336","-73.67317522","4.853385264","11957",25297,"CUNDINAMARCA","GACHETA","7146","3263","10409"
"337","-73.34231555","6.662666051","12663",68296,"SANTANDER","GALAN","2215","777","2992"
"338","-74.88305245","10.8983592","12621",8296,"ATLANTICO","GALAPA","3325","28687","32012"
"339","-74.97770076","9.133198837","12006",70235,"SUCRE","GALERAS","6854","10443","17297"
"340","-73.62002292","4.709836135","11869",25299,"CUNDINAMARCA","GAMA","3204","669","3873"
"341","-73.72424985","8.312270634","12370",20295,"CESAR","GAMARRA","6484","7988","14472"
"342","-73.36787822","5.90273457","12693",68298,"SANTANDER","GAMBITA","4739","429","5168"
"343","-72.75440816","5.76861827","12381",15296,"BOYACA","GAMEZA","4105","1564","5669"
"344","-73.33943221","5.058158107","11674",15299,"BOYACA","GARAGOA","4219","12301","16520"
"345","-75.5723814","2.195445793","11836",41298,"HUILA","GARZON","36368","33455","69823"
"346","-75.75700481","4.227375661","12411",63302,"QUINDIO","GENOVA","4698","4936","9634"
"347","-75.53632494","2.380031426","12579",41306,"HUILA","GIGANTE","13922","14230","28152"
"348","-76.20314316","3.73840471","12243",76306,"VALLE DEL CAUCA","GINEBRA","11268","8000","19268"
"349","-75.95591307","6.661281492","12033",5306,"ANTIOQUIA","GIRALDO","2987","1201","4188"
"350","-74.83505219","4.318006858","12410",25307,"CUNDINAMARCA","GIRARDOT","3475","94359","97834"
"351","-75.4623076","6.367892256","12485",5308,"ANTIOQUIA","GIRARDOTA","17555","25011","42566"
"352","-73.31728026","7.068632066","12078",68307,"SANTANDER","GIRON","17850","117941","135791"
"353","-75.20550618","6.698480967","12339",5310,"ANTIOQUIA","GOMEZ PLATA","6180","5072","11252"
"354","-73.40032407","8.367355615","11708",20310,"CESAR","GONZALEZ","7659","1593","9252"
"355","-72.8220057","7.878482117","12215",54313,"NORTE DE SANTANDER","GRAMALOTE","3368","2961","6329"
"356","-75.14048023","6.114133783","11827",5313,"ANTIOQUIA","GRANADA","5729","4060","9789"
"357","-72.84791624","6.915953312","11738",68318,"SANTANDER","GUACA","4960","1956","6916"
"358","-72.54099233","6.417446778","12068",15317,"BOYACA","GUACAMAYAS","1546","586","2132"
"359","-76.30813074","3.775007752","12168",76318,"VALLE DEL CAUCA","GUACARI","13101","18701","31802"
"360","-73.71789022","5.380034321","12082",25317,"CUNDINAMARCA","GUACHETA","7903","3614","11517"
"361","-77.78151133","1.00207354","12170",52317,"NARINO","GUACHUCAL","13616","3221","16837"
"362","-75.23817855","6.855809778","11925",5315,"ANTIOQUIA","GUADALUPE","4342","1889","6231"
"363","-74.66515748","5.163822839","12303",25320,"CUNDINAMARCA","GUADUAS","16780","15051","31831"
"364","-77.55837051","1.179305799","12326",52320,"NARINO","GUAITARILLA","9794","3918","13712"
"365","-77.60933411","0.953786627","11660",52323,"NARINO","GUALMATAN","3523","2150","5673"
"366","-74.15875731","9.222341314","12005",47318,"MAGDALENA","GUAMAL","18292","7216","25508"
"367","-74.9983571","4.047959985","12530",73319,"TOLIMA","GUAMO","18428","16353","34781"
"368","-77.67021848","2.436065765","12051",19318,"CAUCA","GUAPI","12390","16273","28663"
"369","-73.3284908","6.306968909","11653",68322,"SANTANDER","GUAPOTA","1765","506","2271"
"370","-74.68727375","8.368090349","11582",70265,"SUCRE","GUARANDA","9802","5696","15498"
"371","-75.45049321","6.263612647","11645",5318,"ANTIOQUIA","GUARNE","25650","13891","39541"
"372","-73.86682986","4.795482665","12454",25322,"CUNDINAMARCA","GUASCA","8422","4020","12442"
"373","-75.17324126","6.22890477","12231",5321,"ANTIOQUIA","GUATAPE","1594","4244","5838"
"374","-74.81009611","4.500748091","12128",25324,"CUNDINAMARCA","GUATAQUI","1207","1282","2489"
"375","-73.83988633","4.911213447","12588",25326,"CUNDINAMARCA","GUATAVITA","4914","1771","6685"
"376","-73.50528567","4.988780314","12075",15322,"BOYACA","GUATEQUE","3036","7135","10171"
"377","-75.8570373","5.312344255","12426",66318,"RISARALDA","GUATICA","11985","3767","15752"
"378","-73.71737938","5.933968369","12361",68324,"SANTANDER","GUAVATA","3645","757","4402"
"379","-74.50988924","4.866144517","11675",25328,"CUNDINAMARCA","GUAYABAL DE SIQUIMA","2788","864","3652"
"380","-73.88114289","4.175083512","11976",25335,"CUNDINAMARCA","GUAYABETAL","3429","1351","4780"
"381","-73.52968164","4.919365476","11885",15325,"BOYACA","GUAYATA","5024","1344","6368"
"382","-73.59412404","6.026826531","12104",68327,"SANTANDER","GUEPSA","2399","1886","4285"
"383","-72.27308088","6.536789587","12283",15332,"BOYACA","GUICAN","6202","1667","7869"
"384","-74.07789101","4.15889778","12058",25339,"CUNDINAMARCA","GUTIERREZ","2633","856","3489"
"385","-73.09632494","8.343893905","11665",54344,"NORTE DE SANTANDER","HACARI","9038","1083","10121"
"386","-74.12453068","8.966071644","12547",13300,"BOLIVAR","HATILLO DE LOBA","8734","2736","11470"
"387","-73.37935742","6.546895849","11843",68344,"SANTANDER","HATO","1659","742","2401"
"388","-71.20899966","6.077861511","12373",85125,"CASANARE","HATO COROZAL","6478","3613","10091"
"389","-72.72180002","11.10211921","12516",44378,"LA GUAJIRA","HATONUEVO","7581","8802","16383"
"390","-75.76320655","6.222351841","11585",5347,"ANTIOQUIA","HELICONIA","3847","2809","6656"
"391","-72.51920713","7.466716153","11806",54347,"NORTE DE SANTANDER","HERRAN","3388","1113","4501"
"392","-75.26952639","5.061576691","12593",73347,"TOLIMA","HERVEO","6877","2265","9142"
"393","-75.94570844","5.77052537","12574",5353,"ANTIOQUIA","HISPANIA","1790","3031","4821"
"394","-75.47689225","2.533888067","12683",41349,"HUILA","HOBO","1606","4939","6545"
"395","-74.807143","5.15720949","12313",73349,"TOLIMA","HONDA","893","26417","27310"
"396","-75.26356239","4.436262495","12013",73001,"TOLIMA","IBAGUE","29754","468647","498401"
"397","-74.56508109","4.120818379","11952",73352,"TOLIMA","ICONONZO","8313","3336","11649"
"398","-77.55000478","1.001012751","11607",52352,"NARINO","ILES","6115","1721","7836"
"399","-77.53331287","1.093313296","12382",52354,"NARINO","IMUES","6796","696","7492"
"400","-68.40959186","3.259999847","11838",94001,"GUAINIA","PUERTO INIRIDA","7073","10793","17866"
"401","-76.1667321","2.514440751","11841",19355,"CAUCA","INZA","24849","2140","26989"
"402","-77.3864691","0.571368018","12031",52356,"NARINO","IPIALES","34754","74362","109116"
"403","-75.79851424","2.767148624","12022",41357,"HUILA","IQUIRA","8167","2460","10627"
"404","-76.28167258","1.976264449","12568",41359,"HUILA","ISNOS","18955","4747","23702"
"405","-76.89342459","4.767412971","12292",27361,"CHOCO","ISTMINA","5319","18320","23639"
"406","-75.63116715","6.178741029","12644",5360,"ANTIOQUIA","ITAGUI","21779","213237","235016"
"407","-75.87050594","7.256721846","11735",5361,"ANTIOQUIA","ITUANGO","19072","6016","25088"
"408","-72.98728139","5.586352522","12264",15362,"BOYACA","IZA","1215","901","2116"
"409","-76.32694227","2.845348484","12477",19364,"CAUCA","JAMBALO","13581","1044","14625"
"410","-76.66502698","3.199857931","12397",76364,"VALLE DEL CAUCA","JAMUNDI","31235","65758","96993"
"411","-75.83245927","5.573276404","12130",5364,"ANTIOQUIA","JARDIN","7468","6965","14433"
"412","-73.40873292","5.351810143","12613",15367,"BOYACA","JENESANO","5829","1607","7436"
"413","-72.59741267","6.111316959","12135",15368,"BOYACA","JERICO","4099","617","4716"
"414","-74.70940859","4.55678281","11694",25368,"CUNDINAMARCA","JERUSALEN","2116","607","2723"
"415","-73.83525295","5.859829353","12636",68368,"SANTANDER","JESUS MARIA","2649","806","3455"
"416","-73.10966363","6.698568009","12287",68370,"SANTANDER","JORDAN","1100","64","1164"
"417","-75.07621185","10.81851589","12429",8372,"ATLANTICO","JUAN DE ACOSTA","5444","9134","14578"
"418","-73.71124706","4.687132075","12125",25372,"CUNDINAMARCA","JUNIN","7627","821","8448"
"419","-77.70277557","7.128094521","12325",27372,"CHOCO","JURADO","1934","1675","3609"
"420","-75.30101629","8.030584205","11981",23350,"CORDOBA","LA APARTADA","2767","9935","12702"
"421","-76.20477849","2.176728812","12147",41378,"HUILA","LA ARGENTINA","7929","3663","11592"
"422","-74.03839316","5.890138685","11689",68377,"SANTANDER","LA BELLEZA","6779","1683","8462"
"423","-73.93591054","4.686778988","11601",25377,"CUNDINAMARCA","LA CALERA","14248","9520","23768"
"424","-73.48076482","5.080749738","11834",15380,"BOYACA","LA CAPILLA","2148","1030","3178"
"425","-75.44723186","5.996192639","11995",5376,"ANTIOQUIA","LA CEJA","7981","38287","46268"
"426","-76.08330163","4.991791426","11870",66383,"RISARALDA","LA CELIA","5331","3430","8761"
"427","-72.89294496","-1.316064408","11624",91405,"AMAZONAS","LA CHORRERA","3337","0","3337"
"428","-76.92629066","1.5649499","12494",52378,"NARINO","LA CRUZ","11374","6256","17630"
"429","-76.60773864","3.668018271","11723",76377,"VALLE DEL CAUCA","LA CUMBRE","8832","2290","11122"
"430","-74.74306324","5.513717632","12289",17380,"CALDAS","LA DORADA","7424","65501","72925"
"431","-73.40718934","7.686024683","11726",54385,"NORTE DE SANTANDER","LA ESPERANZA","9631","1322","10953"
"432","-75.66639719","6.140715296","11720",5380,"ANTIOQUIA","LA ESTRELLA","23751","28812","52563"
"433","-77.41270181","1.356932617","12171",52381,"NARINO","LA FLORIDA","9547","1876","11423"
"434","-73.6502772","8.597351532","11710",20383,"CESAR","LA GLORIA","8807","5779","14586"
"435","-67.02656702","1.367860555","12309",94885,"GUAINIA","LA GUADALUPE","225","0","225"
"436","-73.33665041","9.539099657","12008",20400,"CESAR","LA JAGUA DE IBIRICO","5232","16850","22082"
"437","-73.06946693","10.43313201","11951",44420,"LA GUAJIRA","LA JAGUA DEL PILAR","771","1950","2721"
"438","-77.70533268","1.512316154","12558",52385,"NARINO","LA LLANADA","4578","1966","6544"
"439","-74.06840954","2.147515454","12268",50350,"META","LA MACARENA","20541","3623","24164"
"440","-75.58841891","5.380603324","11886",17388,"CALDAS","LA MERCED","4562","2190","6752"
"441","-74.49432252","4.628604431","12507",25386,"CUNDINAMARCA","LA MESA","12973","14192","27165"
"442","-74.43002432","5.317324919","12254",25394,"CUNDINAMARCA","LA PALMA","5935","3983","9918"
"443","-73.2488283","10.12394787","11773",20621,"CESAR","LA PAZ","8773","13101","21874"
"444","-70.04608137","-1.514695806","11901",91407,"AMAZONAS","LA PEDRERA","3711","0","3711"
"445","-74.43000654","5.189433848","12360",25398,"CUNDINAMARCA","LA PENA","5988","1001","6989"
"446","-75.6291183","5.74344571","11919",5390,"ANTIOQUIA","LA PINTADA","1152","5914","7066"
"447","-76.10447812","2.320559513","12617",41396,"HUILA","LA PLATA","31483","20706","52189"
"448","-73.2079417","8.240063718","11765",54398,"NORTE DE SANTANDER","LA PLAYA","7732","663","8395"
"449","-69.50636961","5.504024614","12070",99524,"VICHADA","LA PRIMAVERA","5787","4829","10616"
"450","-72.36620891","6.135512003","12488",85136,"CASANARE","LA SALINA","796","514","1310"
"451","-76.78590608","2.19664956","12240",19392,"CAUCA","LA SIERRA","9512","1425","10937"
"452","-75.82740403","4.440178425","11647",63401,"QUINDIO","LA TEBAIDA","2895","30609","33504"
"453","-78.28842451","2.289654202","11970",52390,"NARINO","LA TOLA","2752","5656","8408"
"454","-75.29583566","8.796272681","12666",70400,"SUCRE","LA UNION","5234","5112","10346"
"455","-72.56448657","6.242617433","12300",15403,"BOYACA","LA UVITA","2422","1199","3621"
"456","-74.35933631","4.960481677","12335",25402,"CUNDINAMARCA","LA VEGA","8702","4563","13265"
"457","-74.25237927","5.493888498","12182",15401,"BOYACA","LA VICTORIA","970","704","1674"
"458","-75.88905809","4.895382184","12174",66400,"RISARALDA","LA VIRGINIA","573","30688","31261"
"459","-72.55286492","7.245581261","11581",54377,"NORTE DE SANTANDER","LABATECA","4554","1298","5852"
"460","-72.62354129","5.509116917","11828",15377,"BOYACA","LABRANZAGRANDE","4295","1050","5345"
"461","-73.85135199","6.306517507","12523",68385,"SANTANDER","LANDAZURI","12075","3117","15192"
"462","-73.31566256","7.197123372","12646",68406,"SANTANDER","LEBRIJA","17082","13898","30980"
"463","-77.37562044","1.961464203","11943",52405,"NARINO","LEIVA","8549","3236","11785"
"464","-74.04172697","3.4437938","11805",50400,"META","LEJANIAS","5678","3880","9558"
"465","-73.71018939","5.285341863","12352",25407,"CUNDINAMARCA","LENGUAZAQUE","7675","2094","9769"
"466","-74.95512807","4.853891713","12413",73408,"TOLIMA","LERIDA","4271","15218","19489"
"467","-70.04441583","-3.572238935","12436",91001,"AMAZONAS","LETICIA","14021","23811","37832"
"468","-75.10833352","4.835620645","12640",73411,"TOLIMA","LIBANO","16081","26188","42269"
"469","-75.79851119","6.722169948","12368",5411,"ANTIOQUIA","LIBORINA","7619","1856","9475"
"470","-77.54421696","1.400542923","12084",52411,"NARINO","LINARES","9552","2269","11821"
"471","-76.42830409","5.58798565","11712",27413,"CHOCO","LLORO","7506","2742","10248"
"472","-77.31315566","3.011654127","11606",19418,"CAUCA","LOPEZ","15009","4317","19326"
"473","-75.90612985","9.156641397","12345",23417,"CORDOBA","LORICA","65899","44417","110316"
"474","-77.62909978","1.57786679","12618",52418,"NARINO","LOS ANDES","10494","5755","16249"
"475","-76.30078782","8.87755506","12528",23419,"CORDOBA","LOS CORDOBAS","14531","3306","17837"
"476","-75.20653652","9.424900326","11878",70418,"SUCRE","LOS PALMITOS","10444","8871","19315"
"477","-72.56919969","7.705405009","12671",54405,"NORTE DE SANTANDER","LOS PATIOS","2162","65119","67281"
"478","-73.12489844","6.797344699","12678",68418,"SANTANDER","LOS SANTOS","9430","1547","10977"
"479","-72.86757872","7.941929268","12446",54418,"NORTE DE SANTANDER","LOURDES","2227","1221","3448"
"480","-75.17079859","10.62450341","12123",8421,"ATLANTICO","LURUACO","12368","11190","23558"
"481","-73.32028596","4.95050516","12334",15425,"BOYACA","MACANAL","3764","941","4705"
"482","-72.61074996","6.497328082","12519",68425,"SANTANDER","MACARAVITA","2447","306","2753"
"483","-74.73520042","6.519849052","12441",5425,"ANTIOQUIA","MACEO","4630","3000","7630"
"484","-73.64370611","5.014887105","12599",25426,"CUNDINAMARCA","MACHETA","5403","1444","6847"
"485","-74.27706753","4.755648014","12196",25430,"CUNDINAMARCA","MADRID","8567","53858","62425"
"486","-74.73898571","9.14542823","11801",13430,"BOLIVAR","MAGANGUE","41870","79645","121515"
"487","-77.94348192","1.920490259","12677",52427,"NARINO","MAGUI","13157","3237","16394"
"488","-75.18553493","10.15704817","12649",13433,"BOLIVAR","MAHATES","14302","8627","22929"
"489","-72.29807216","11.38568622","11664",44430,"LA GUAJIRA","MAICAO","38656","85101","123757"
"490","-74.72213932","8.542126875","12529",70429,"SUCRE","MAJAGUAL","22175","9482","31657"
"491","-72.77102764","6.707484779","11909",68432,"SANTANDER","MALAGA","3524","15182","18706"
"492","-74.81085242","10.8392286","11840",8433,"ATLANTICO","MALAMBO","6022","95258","101280"
"493","-77.87004798","1.170476203","12533",52435,"NARINO","MALLAMA","7822","1464","9286"
"494","-74.99602637","10.4447498","11588",8436,"ATLANTICO","MANATI","1407","12403","13810"
"495","-72.57466802","11.6088511","11760",44560,"LA GUAJIRA","MANAURE","41518","26066","67584"
"496","-72.98208891","10.37108825","11574",20443,"CESAR","MANAURE","4088","7229","11317"
"497","-72.23161876","4.648024743","12419",85139,"CASANARE","MANI","4099","7078","11177"
"498","-75.54191424","5.071635939","12514",17001,"CALDAS","MANIZALES","26660","353312","379972"
"499","-73.58582858","4.957193621","12076",25436,"CUNDINAMARCA","MANTA","3555","1072","4627"
"500","-75.17979099","5.219289194","11669",17433,"CALDAS","MANZANARES","15240","9864","25104"
"501","-71.94964157","3.09705754","11898",50325,"META","MAPIRIPAN","11983","1247","13230"
"502","-70.25415231","2.789223276","11783",94663,"GUAINIA","MAPIRIPANA","3072","0","3072"
"503","-74.28134767","9.063237965","12565",13440,"BOLIVAR","MARGARITA","7761","1645","9406"
"504","-75.34693139","9.963428887","11703",13442,"BOLIVAR","MARIA LA BAJA","27544","17851","45395"
"505","-75.32058398","6.16654384","12630",5440,"ANTIOQUIA","MARINILLA","13073","32475","45548"
"506","-74.05439807","5.557345991","12183",15442,"BOYACA","MARIPI","7010","904","7914"
"507","-74.93054855","5.21451718","12209",73443,"TOLIMA","MARIQUITA","9404","23529","32933"
"508","-75.64034765","5.48440668","12207",17442,"CALDAS","MARMATO","7309","1146","8455"
"509","-75.08028881","5.290684062","12301",17444,"CALDAS","MARQUETALIA","8992","5806","14798"
"510","-75.78662908","4.931793921","12546",66440,"RISARALDA","MARSELLA","9969","11488","21457"
"511","-75.3133748","5.218515745","11693",17446,"CALDAS","MARULANDA","2341","1148","3489"
"512","-73.08195833","7.336680666","11608",68444,"SANTANDER","MATANZA","4703","1137","5840"
"513","-75.63644852","6.26518555","12086",5001,"ANTIOQUIA","MEDELLIN","38813","2175681","2214494"
"514","-73.42364636","4.439608142","12616",25438,"CUNDINAMARCA","MEDINA","6426","3419","9845"
"515","-76.70378467","6.023739859","12194",27425,"CHOCO","MEDIO ATRATO","20309","728","21037"
"516","-77.09176366","5.140540393","12245",27430,"CHOCO","MEDIO BAUDO","11254","461","11715"
"517","-76.73921387","4.933539129","11717",27450,"CHOCO","MEDIO SAN JUAN","8794","4233","13027"
"518","-74.67206125","4.178497271","12675",73449,"TOLIMA","MELGAR","5945","26829","32774"
"519","-77.20669919","1.793633956","11906",19450,"CAUCA","MERCADERES","13168","4534","17702"
"520","-74.13674493","3.052661988","11688",50330,"META","MESETAS","7632","3063","10695"
"521","-75.5460735","1.153818861","11797",18460,"CAQUETA","MILAN","9884","1603","11487"
"522","-73.2121222","5.122170687","11802",15455,"BOYACA","MIRAFLORES","4967","4694","9661"
"523","-76.23182041","3.226039479","12642",19455,"CAUCA","MIRANDA","11224","22021","33245"
"524","-71.17507547","-0.723276145","11937",91460,"AMAZONAS","MIRITI","1643","0","1643"
"525","-76.00820572","5.368506722","12662",66456,"RISARALDA","MISTRATO","11153","4013","15166"
"526","-70.40996762","0.972075639","11918",97001,"VAUPES","MITU","15316","13066","28382"
"527","-76.64038521","1.16001089","11603",86001,"PUTUMAYO","MOCOA","10004","25751","35755"
"528","-72.98458255","6.474205631","12297",68464,"SANTANDER","MOGOTES","7401","3551","10952"
"529","-72.85224653","6.626248159","11867",68468,"SANTANDER","MOLAGAVITA","4979","785","5764"
"530","-75.63565755","9.234721767","12623",23464,"CORDOBA","MOMIL","5380","8712","14092"
"531","-74.58681117","9.125163294","12512",13468,"BOLIVAR","MOMPOS","18974","22591","41565"
"532","-72.71728289","5.674518619","11813",15464,"BOYACA","MONGUA","3462","1802","5264"
"533","-72.85727927","5.665739189","12186",15466,"BOYACA","MONGUI","2321","2681","5002"
"534","-73.57774934","5.843159796","12444",15469,"BOYACA","MONIQUIRA","11846","10006","21852"
"535","-76.11287993","9.20452424","12501",23500,"CORDOBA","MONITOS","18258","5339","23597"
"536","-75.42861674","1.34604783","12296",18410,"CAQUETA","LA MONTANITA","17936","4245","22181"
"537","-75.53075976","5.91328851","12587",5467,"ANTIOQUIA","MONTEBELLO","5535","1988","7523"
"538","-74.45817243","7.995643584","12306",13458,"BOLIVAR","MONTECRISTO","9893","7080","16973"
"539","-75.72657034","7.878992509","12324",23466,"CORDOBA","MONTELIBANO","24223","49024","73247"
"540","-75.8163929","4.523128553","12581",63470,"QUINDIO","MONTENEGRO","7705","32169","39874"
"541","-75.95781042","8.584313783","12265",23001,"CORDOBA","MONTERIA","92395","286575","378970"
"542","-72.87900346","4.820157476","11819",85162,"CASANARE","MONTERREY","2533","10218","12751"
"543","-73.94070514","8.249968857","12105",13473,"BOLIVAR","MORALES","13620","4903","18523"
"544","-75.78256291","1.491710933","12473",18479,"CAQUETA","MORELIA","2060","1658","3718"
"545","-69.78612501","2.392015184","12244",94888,"GUAINIA","MORICHAL","752","0","752"
"546","-75.32073383","9.384594365","12377",70473,"SUCRE","MORROA","7350","5496","12846"
"547","-74.25132139","4.65841656","11711",25473,"CUNDINAMARCA","MOSQUERA","3342","59884","63226"
"548","-73.43265105","5.628406716","12322",15476,"BOYACA","MOTAVITA","6148","624","6772"
"549","-75.27882047","4.817132615","12538",73461,"TOLIMA","MURILLO","3466","1609","5075"
"550","-76.70850062","6.823235844","12114",5475,"ANTIOQUIA","MURINDO","2636","1100","3736"
"551","-76.47560717","7.330437732","11967",5480,"ANTIOQUIA","MUTATA","12154","4274","16428"
"552","-72.79878502","7.298099517","11671",54480,"NORTE DE SANTANDER","MUTISCUA","3316","591","3907"
"553","-74.16574295","5.518883071","12448",15480,"BOYACA","MUZO","4692","5545","10237"
"554","-75.21739759","5.584218577","12269",5483,"ANTIOQUIA","NARINO","13054","2525","15579"
"555","-75.8519078","2.663772321","12660",41483,"HUILA","NATAGA","3918","1913","5831"
"556","-75.15157125","3.536454542","11936",73483,"TOLIMA","NATAGAIMA","9672","13540","23212"
"557","-74.85779925","7.998044784","12222",5495,"ANTIOQUIA","NECHI","10228","10440","20668"
"558","-76.68190333","8.534542753","11812",5490,"ANTIOQUIA","NECOCLI","36740","11249","47989"
"559","-75.52959741","5.172067043","11941",17486,"CALDAS","NEIRA","14173","13967","28140"
"560","-75.33997659","3.011458093","11927",41001,"HUILA","NEIVA","20072","295961","316033"
"561","-73.90604648","5.069672763","12522",25486,"CUNDINAMARCA","NEMOCON","6313","4990","11303"
"562","-74.6377682","4.282871744","11577",25488,"CUNDINAMARCA","NILO","11011","3163","14174"
"563","-74.41340013","5.117419758","11774",25489,"CUNDINAMARCA","NIMAIMA","3316","2207","5523"
"564","-72.956039","5.747331408","11993",15491,"BOYACA","NOBSA","9970","5224","15194"
"565","-74.40463684","5.047676398","12042",25491,"CUNDINAMARCA","NOCAIMA","5892","1842","7734"
"566","-74.95800613","5.536708983","12314",17495,"CALDAS","NORCASIA","2762","4141","6903"
"567","-76.55064952","4.872728351","11589",27491,"CHOCO","NOVITA","5306","2561","7867"
"568","-74.33409154","9.731325914","11984",47460,"MAGDALENA","NUEVA GRANADA","9830","6304","16134"
"569","-73.48094083","5.322104791","12131",15494,"BOYACA","NUEVO COLON","5030","1045","6075"
"570","-72.11680462","5.504128791","12235",85225,"CASANARE","NUNCHIA","6583","1837","8420"
"571","-77.32036067","5.681482541","11651",27495,"CHOCO","NUQUI","4468","3157","7625"
"572","-75.979024","4.570232533","11752",76497,"VALLE DEL CAUCA","OBANDO","4623","9757","14380"
"573","-73.13683223","6.343754133","11575",68498,"SANTANDER","OCAMONTE","4343","641","4984"
"574","-73.34917448","8.216439525","12517",54498,"NORTE DE SANTANDER","OCANA","11690","78827","90517"
"575","-73.29090856","6.22695239","12271",68500,"SANTANDER","OIBA","6376","4607","10983"
"576","-73.31138261","5.574768878","12091",15500,"BOYACA","OICATA","2535","287","2822"
"577","-75.78611688","6.603518387","12315",5501,"ANTIOQUIA","OLAYA","2604","312","2916"
"578","-78.3541496","2.187008742","12375",52490,"NARINO","OLAYA HERRERA","23777","3582","27359"
"579","-72.83240778","6.32436931","12009",68502,"SANTANDER","ONZAGA","4527","1180","5707"
"580","-76.04593538","2.07528946","12424",41503,"HUILA","OPORAPA","7887","2897","10784"
"581","-76.93474038","0.668216293","12457",86320,"PUTUMAYO","ORITO","26447","17207","43654"
"582","-71.61752528","4.880715282","12100",85230,"CASANARE","OROCUE","3608","4109","7717"
"583","-75.29316259","3.925038134","12045",73504,"TOLIMA","ORTEGA","26307","7566","33873"
"584","-77.59872026","1.053053497","12689",52506,"NARINO","OSPINA","6122","2099","8221"
"585","-74.22945399","5.733258874","11796",15507,"BOYACA","OTANCHE","6545","3918","10463"
"586","-75.18510223","9.556176348","11980",70508,"SUCRE","OVEJAS","10461","11197","21658"
"587","-73.42375618","5.109985819","12136",15511,"BOYACA","PACHAVITA","2633","469","3102"
"588","-74.18066737","5.149937443","11962",25513,"CUNDINAMARCA","PACHO","11917","13497","25414"
"589","-70.89772644","0.157118253","12669",97511,"VAUPES","PACOA","4459","0","4459"
"590","-75.51643998","5.486775559","12035",17513,"CALDAS","PACORA","8714","6482","15196"
"591","-76.35689669","3.199693025","11657",19513,"CAUCA","PADILLA","4417","3919","8336"
"592","-73.03077224","5.068318806","11748",15514,"BOYACA","PAEZ","2205","1164","3369"
"593","-75.77093917","2.400464645","12201",41518,"HUILA","PAICOL","3183","2025","5208"
"594","-73.59293824","8.925496386","12543",20517,"CESAR","PAILITAS","4233","11669","15902"
"595","-74.18199594","5.369468819","11756",25518,"CUNDINAMARCA","PAIME","4942","531","5473"
"596","-73.18394403","5.808498427","11625",15516,"BOYACA","PAIPA","12338","15428","27766"
"597","-72.72075429","5.34751987","12132",15518,"BOYACA","PAJARITO","1520","890","2410"
"598","-75.44856167","2.879198759","11757",41524,"HUILA","PALERMO","14562","12655","27217"
"599","-75.69553237","5.045722955","12525",17524,"CALDAS","PALESTINA","12218","5819","18037"
"600","-73.30739047","6.497388403","12261",68522,"SANTANDER","PALMAR","2048","835","2883"
"601","-74.77793294","10.68839642","11668",8520,"ATLANTICO","PALMAR DE VARELA","878","22796","23674"
"602","-73.28150168","6.37287828","12362",68524,"SANTANDER","PALMAS DEL SOCORRO","1819","624","2443"
"603","-76.25218521","3.553941729","11690",76520,"VALLE DEL CAUCA","PALMIRA","56348","228122","284470"
"604","-75.57506477","9.327891135","12012",70523,"SUCRE","PALMITO","6921","4440","11361"
"605","-75.04526131","5.075652642","12484",73520,"TOLIMA","PALOCABILDO","6908","2701","9609"
"606","-72.69951449","7.349397367","12172",54518,"NORTE DE SANTANDER","PAMPLONA","4508","48639","53147"
"607","-72.65964781","7.458149353","11816",54520,"NORTE DE SANTANDER","PAMPLONITA","3970","822","4792"
"608","-69.10950993","1.937470305","11648",94887,"GUAINIA","PANA PANA","2224","0","2224"
"609","-74.48952429","4.154216782","11977",25524,"CUNDINAMARCA","PANDI","4453","1015","5468"
"610","-72.47515598","6.404933136","12250",15522,"BOYACA","PANQUEBA","1214","645","1859"
"611","-70.63332483","1.62700045","12054",97777,"VAUPES","PAPUNAUA","879","0","879"
"612","-73.18027843","6.437489661","12137",68533,"SANTANDER","PARAMO","2546","1125","3671"
"613","-73.18559208","4.416901207","11892",25530,"CUNDINAMARCA","PARATEBUENO","5343","2073","7416"
"614","-74.26947034","4.30291945","12016",25535,"CUNDINAMARCA","PASCA","8572","2550","11122"
"615","-77.21098705","1.040568516","12214",52001,"NARINO","PASTO","70241","312377","382618"
"616","-77.08928407","2.159412796","12351",19532,"CAUCA","PATIA","21516","11679","33195"
"617","-74.0261697","5.675772125","12641",15531,"BOYACA","PAUNA","7765","2573","10338"
"618","-72.38875976","5.626773179","12350",15533,"BOYACA","PAYA","2155","493","2648"
"619","-70.88008665","5.758143477","11917",85250,"CASANARE","PAZ DE ARIPORO","10666","16480","27146"
"620","-72.78856623","6.002192666","12650",15537,"BOYACA","PAZ DE RIO","2155","3103","5258"
"621","-74.83520246","10.15470514","12274",47541,"MAGDALENA","PEDRAZA","5706","2325","8031"
"622","-73.61087245","8.770666537","11854",20550,"CESAR","PELAYA","5866","10695","16561"
"623","-75.23943942","6.243778838","12071",5541,"ANTIOQUIA","PENOL","7998","8243","16241"
"624","-75.20420959","5.388396428","12614",17541,"CALDAS","PENSILVANIA","18400","8026","26426"
"625","-75.88534579","7.045724243","11988",5543,"ANTIOQUIA","PEQUE","8039","1582","9621"
"626","-75.73320535","4.77003429","11928",66001,"RISARALDA","PEREIRA","72315","371239","443554"
"627","-73.10215639","5.474706648","11650",15542,"BOYACA","PESCA","7385","2377","9762"
"628","-76.32935095","1.144205709","12449",19533,"CAUCA","PIAMONTE","6540","543","7083"
"629","-73.0237932","6.955364073","12198",68547,"SANTANDER","PIEDECUESTA","24628","92736","117364"
"630","-74.93942494","4.492616583","11698",73547,"TOLIMA","PIEDRAS","3804","1623","5427"
"631","-76.59737402","2.702145442","12598",19548,"CAUCA","PIENDAMO","23110","12694","35804"
"632","-75.7132678","4.311453134","12682",63548,"QUINDIO","PIJAO","2856","3827","6683"
"633","-74.22497948","9.469392146","11823",47545,"MAGDALENA","PIJINO DEL CARMEN","7891","6224","14115"
"634","-73.18875978","6.508422815","11817",68549,"SANTANDER","PINCHOTE","3277","1143","4420"
"635","-74.38109017","8.823709739","11686",13549,"BOLIVAR","PINILLOS","20393","2408","22801"
"636","-75.15635087","10.73728793","12690",8549,"ATLANTICO","PIOJO","2558","2459","5017"
"637","-72.50766753","5.709180969","12576",15550,"BOYACA","PISBA","1190","343","1533"
"638","-75.83139105","2.229866102","12202",41548,"HUILA","PITAL","8480","4355","12835"
"639","-76.16476992","1.759910942","12332",41551,"HUILA","PITALITO","42592","59893","102485"
"640","-74.41199461","10.40800696","12126",47551,"MAGDALENA","PIVIJAY","16789","19229","36018"
"641","-75.85353467","3.166050978","11830",73555,"TOLIMA","PLANADAS","22209","7208","29417"
"642","-75.61641524","8.313321763","12146",23555,"CORDOBA","PLANETA RICA","23369","38323","61692"
"643","-74.60274052","9.764552666","12492",47555,"MAGDALENA","PLATO","13435","35760","49195"
"644","-77.49181418","1.73298586","11640",52540,"NARINO","POLICARPA","11588","2197","13785"
"645","-74.85643249","10.76105238","11593",8558,"ATLANTICO","POLONUEVO","2572","11325","13897"
"646","-74.80501751","10.5828422","12364",8560,"ATLANTICO","PONEDERA","9179","9775","18954"
"647","-76.64338095","2.476775456","11573",19001,"CAUCA","POPAYAN","30534","226978","257512"
"648","-71.9656621","5.645970102","12162",85263,"CASANARE","PORE","4283","3685","7968"
"649","-77.40666858","0.747922024","11644",52560,"NARINO","POTOSI","11150","2002","13152"
"650","-76.18534754","3.417039288","11786",76563,"VALLE DEL CAUCA","PRADERA","6597","42246","48843"
"651","-74.89714261","3.728176807","11634",73563,"TOLIMA","PRADO","5285","3476","8761"
"652","-77.63086573","1.247218841","12103",52565,"NARINO","PROVIDENCIA","7627","4072","11699"
"653","-73.67682986","10.27056179","12003",20570,"CESAR","PUEBLO BELLO","13072","4156","17228"
"654","-75.39792844","8.463564942","12106",23570,"CORDOBA","PUEBLO NUEVO","20359","11177","31536"
"655","-76.19165316","5.20529344","12354",66572,"RISARALDA","PUEBLO RICO","9109","2866","11975"
"656","-75.87615559","5.794970852","12155",5576,"ANTIOQUIA","PUEBLORRICO","4168","4126","8294"
"657","-74.38256567","10.83370969","11978",47570,"MAGDALENA","PUEBLOVIEJO","16387","8607","24994"
"658","-73.69286867","5.816583976","12337",68572,"SANTANDER","PUENTE NACIONAL","9139","5399","14538"
"659","-77.31980071","0.821229357","11613",52573,"NARINO","PUERRES","6167","2812","8979"
"660","-73.84833763","-0.969348318","12029",91530,"AMAZONAS","PUERTO ALEGRIA","1277","0","1277"
"661","-71.14143104","-1.970787212","12164",91536,"AMAZONAS","PUERTO ARICA","1440","0","1440"
"662","-76.33682525","0.463502472","12112",86568,"PUTUMAYO","PUERTO ASIS","28150","27609","55759"
"663","-74.53934729","6.47164902","12531",5579,"ANTIOQUIA","PUERTO BERRIO","4760","34193","38953"
"664","-74.48137127","5.940038461","11922",15572,"BOYACA","PUERTO BOYACA","16495","33806","50301"
"665","-76.41350999","0.676369059","11661",86569,"PUTUMAYO","PUERTO CAICEDO","10062","4144","14206"
"666","-68.04362116","5.825149064","12609",99001,"VICHADA","PUERTO CARRENO","3256","10032","13288"
"667","-74.91310188","11.00261449","11889",8573,"ATLANTICO","PUERTO COLOMBIA","7183","20654","27837"
"668","-72.65970116","2.718144037","11744",50450,"META","PUERTO CONCORDIA","8398","7566","15964"
"669","-76.17881286","8.995523839","12219",23574,"CORDOBA","PUERTO ESCONDIDO","18252","3534","21786"
"670","-71.63700809","3.993825915","11800",50568,"META","PUERTO GAITAN","11074","6232","17306"
"671","-75.91281092","0.746516135","12028",86571,"PUTUMAYO","PUERTO GUZMAN","18973","3706","22679"
"672","-75.1029617","0.062976859","11727",86573,"PUTUMAYO","LEGUIZAMO","8936","7108","16044"
"673","-75.78311835","7.681812416","12087",23580,"CORDOBA","PUERTO LIBERTADOR","22011","13175","35186"
"674","-73.23215051","3.217939462","12388",50577,"META","PUERTO LLERAS","7534","3132","10666"
"675","-72.61632928","4.039267909","12556",50573,"META","PUERTO LOPEZ","10395","18395","28790"
"676","-74.71344654","6.110756788","12056",5585,"ANTIOQUIA","PUERTO NARE","10161","6529","16690"
"677","-70.44792014","-3.649103037","11960",91540,"AMAZONAS","PUERTO NARINO","5135","1848","6983"
"678","-73.98223946","6.67653434","12349",68573,"SANTANDER","PUERTO PARRA","3679","2835","6514"
"679","-73.13955609","2.782726775","11875",50590,"META","PUERTO RICO","12407","4961","17368"
"680","-70.93611204","6.388666651","12573",81591,"ARAUCA","PUERTO RONDON","1307","2655","3962"
"681","-74.60205017","5.607476786","12208",25572,"CUNDINAMARCA","PUERTO SALGAR","4252","11267","15519"
"682","-72.46243453","8.305181209","12039",54553,"NORTE DE SANTANDER","PUERTO SANTANDER","673","8047","8720"
"683","-76.45364715","3.266924982","12302",19573,"CAUCA","PUERTO TEJADA","5315","39009","44324"
"684","-74.70409376","5.939640943","12619",5591,"ANTIOQUIA","PUERTO TRIUNFO","11569","4679","16248"
"685","-73.80505743","7.536626719","12440",68575,"SANTANDER","PUERTO WILCHES","15798","15705","31503"
"686","-74.69525654","4.678552562","12515",25580,"CUNDINAMARCA","PULI","2356","589","2945"
"687","-77.67003794","0.936449628","12357",52585,"NARINO","PUPIALES","13189","5215","18404"
"688","-76.48183766","2.228339396","11926",19585,"CAUCA","PURACE","13160","1810","14970"
"689","-74.91039947","3.848490618","12694",73585,"TOLIMA","PURIFICACION","12225","15648","27873"
"690","-75.71182152","9.249537122","12491",23586,"CORDOBA","PURISIMA","8532","6145","14677"
"691","-74.52116944","5.082631279","11584",25592,"CUNDINAMARCA","QUEBRADANEGRA","4333","358","4691"
"692","-73.85900962","4.295866395","11999",25594,"CUNDINAMARCA","QUETAME","5222","1348","6570"
"693","-76.67695628","5.939359468","12659",27001,"CHOCO","QUIBDO","11752","101134","112886"
"694","-75.837594","4.593422214","12234",63594,"QUINDIO","QUIMBAYA","6834","27222","34056"
"695","-75.75776909","5.319783176","11598",66594,"RISARALDA","QUINCHIA","25460","7858","33318"
"696","-74.27711275","5.562287602","12472",15580,"BOYACA","QUIPAMA","7118","1675","8793"
"697","-74.57811389","4.701716255","12200",25596,"CUNDINAMARCA","QUIPILE","7523","694","8217"
"698","-72.53956439","7.566897602","11666",54599,"NORTE DE SANTANDER","RAGONVALIA","4025","2775","6800"
"699","-73.33374867","5.285001744","12157",15599,"BOYACA","RAMIRIQUI","6087","4702","10789"
"700","-73.65657336","5.483952398","12481",15600,"BOYACA","RAQUIRA","10040","2482","12522"
"701","-72.78642697","5.228454943","12062",85279,"CASANARE","RECETOR","1775","833","2608"
"702","-73.8638114","8.703524036","11747",13580,"BOLIVAR","REGIDOR","5831","2965","8796"
"703","-74.57260183","6.973594089","12611",5604,"ANTIOQUIA","REMEDIOS","14657","8112","22769"
"704","-74.60462523","10.63373171","12203",47605,"MAGDALENA","REMOLINO","3279","5472","8751"
"705","-75.13830998","10.49781548","11594",8606,"ATLANTICO","REPELON","7559","15314","22873"
"706","-73.46964343","4.199484086","12608",50606,"META","RESTREPO","3500","6678","10178"
"707","-75.53041867","6.070348083","12316",5607,"ANTIOQUIA","RETIRO","8913","8063","16976"
"708","-74.75432642","4.291284274","11676",25612,"CUNDINAMARCA","RICAURTE","4715","3430","8145"
"709","-73.50676129","8.158836091","12431",20614,"CESAR","RIO DE ORO","8678","5728","14406"
"710","-76.46217949","5.153647331","12273",27580,"CHOCO","RIO IRO","6809","1275","8084"
"711","-76.81655499","5.558750373","11628",27600,"CHOCO","RIO QUITO","5764","2124","7888"
"712","-75.88387879","3.469797457","12379",73616,"TOLIMA","RIOBLANCO","21321","4315","25636"
"713","-76.41592501","4.102803337","12586",76616,"VALLE DEL CAUCA","RIOFRIO","11925","5451","17376"
"714","-72.96150032","11.2506328","12405",44001,"LA GUAJIRA","RIOHACHA","31682","136183","167865"
"715","-73.37630561","7.447371519","12298",68615,"SANTANDER","RIONEGRO","23230","6152","29382"
"716","-77.34626852","7.374159189","12148",27615,"CHOCO","RIOSUCIO","7202","7121","14323"
"717","-74.07616922","8.425536349","12140",13600,"BOLIVAR","RIO VIEJO","14805","6255","21060"
"718","-75.79499597","5.11184193","11807",17616,"CALDAS","RISARALDA","6528","4151","10679"
"719","-75.21615056","2.77412718","12628",41615,"HUILA","RIVERA","7717","8967","16684"
"720","-78.42352949","1.937676943","12000",52621,"NARINO","ROBERTO PAYAN","16029","863","16892"
"721","-76.23714039","4.428985478","12053",76622,"VALLE DEL CAUCA","ROLDANILLO","10543","24155","34698"
"722","-75.6100928","4.097384704","12061",73622,"TOLIMA","RONCESVALLES","4474","1795","6269"
"723","-73.21923649","5.351351536","11656",15621,"BOYACA","RONDON","2503","508","3011"
"724","-76.81409104","2.26573885","12534",19622,"CAUCA","ROSAS","11221","1445","12666"
"725","-75.38963415","4.219545701","11987",73624,"TOLIMA","ROVIRA","12257","9408","21665"
"726","-73.5968779","7.418422154","12277",68655,"SANTANDER","SABANA DE TORRES","8113","11659","19772"
"727","-74.77340592","10.79000608","12144",8634,"ATLANTICO","SABANAGRANDE","1172","24227","25399"
"728","-74.95717216","10.61636378","12294",8638,"ATLANTICO","SABANALARGA","19924","66707","86631"
"729","-74.28038542","10.07633182","12204",47660,"MAGDALENA","SABANAS DE SAN ANGEL","11476","3419","14895"
"730","-75.62737296","6.128914753","12223",5631,"ANTIOQUIA","SABANETA","9238","35242","44480"
"731","-73.78138691","5.687878347","12624",15632,"BOYACA","SABOYA","12193","764","12957"
"732","-72.24797817","6.027560146","12420",85315,"CASANARE","SACAMA","663","1043","1706"
"733","-73.5658752","5.544323659","12290",15638,"BOYACA","SACHICA","2204","1664","3868"
"734","-75.4328298","8.785256331","12502",23660,"CORDOBA","SAHAGUN","42650","44985","87635"
"735","-76.20957077","2.064222526","12467",41660,"HUILA","SALADOBLANCO","8083","2152","10235"
"736","-74.72956512","10.49914535","11718",47675,"MAGDALENA","SALAMINA","3394","5010","8404"
"737","-72.89475899","7.755031596","12260",54660,"NORTE DE SANTANDER","SALAZAR","5851","3600","9451"
"738","-75.03473451","3.888734397","12594",73671,"TOLIMA","SALDANA","6692","8298","14990"
"739","-75.53503057","4.611363151","11678",63690,"QUINDIO","SALENTO","3650","3597","7247"
"740","-76.02969464","5.991760293","11787",5642,"ANTIOQUIA","SALGAR","10321","7885","18206"
"741","-73.5500977","5.447395225","12344",15646,"BOYACA","SAMACA","12752","4862","17614"
"742","-75.06069324","5.580920241","12308",17662,"CALDAS","SAMANA","20671","4978","25649"
"743","-77.7262562","1.437827162","12600",52678,"NARINO","SAMANIEGO","32923","17514","50437"
"744","-75.3569911","9.156298036","12098",70670,"SUCRE","SAMPUES","18172","18309","36481"
"745","-76.43471742","1.863853442","11990",41668,"HUILA","SAN AGUSTIN","19775","9912","29687"
"746","-73.46752931","7.836608745","11895",20710,"CESAR","SAN ALBERTO","5809","14209","20018"
"747","-75.65987865","6.934637841","12263",5647,"ANTIOQUIA","SAN ANDRES DE CUERQUIA","4916","2451","7367"
"748","-75.51625413","9.138774053","12465",23670,"CORDOBA","SAN ANDRES SOTAVENTO","54592","8555","63147"
"749","-75.76797279","9.351262958","11731",23672,"CORDOBA","SAN ANTERO","11717","14406","26123"
"750","-75.50903138","3.953392047","12181",73675,"TOLIMA","SAN ANTONIO","10881","4450","15331"
"751","-74.36328601","4.586849151","11697",25645,"CUNDINAMARCA","SAN ANTONIO DEL TEQUENDAMA","11526","848","12374"
"752","-73.53755439","6.102035797","12010",68673,"SANTANDER","SAN BENITO","3502","405","3907"
"753","-74.97230461","8.835542053","11879",70678,"SUCRE","SAN BENITO ABAD","17426","5546","22972"
"754","-74.35901726","4.129559418","11716",25649,"CUNDINAMARCA","SAN BERNARDO","6446","3888","10334"
"755","-75.95525809","9.325798536","12564",23675,"CORDOBA","SAN BERNARDO DEL VIENTO","23228","8177","31405"
"756","-73.16597738","8.441785605","12456",54670,"NORTE DE SANTANDER","SAN CALIXTO","10764","1817","12581"
"757","-75.69168482","8.696793917","12615",23678,"CORDOBA","SAN CARLOS","19098","4524","23622"
"758","-73.21784823","3.798414823","11982",50680,"META","SAN CARLOS DE GUAROA","3515","3087","6602"
"759","-72.63787245","7.828870371","12545",54673,"NORTE DE SANTANDER","SAN CAYETANO","2906","1587","4493"
"760","-75.09342059","10.35749242","12496",13620,"BOLIVAR","SAN CRISTOBAL","1735","4826","6561"
"761","-73.25398628","10.23677541","12566",20750,"CESAR","SAN DIEGO","6461","7311","13772"
"762","-73.07286767","5.204034602","12442",15660,"BOYACA","SAN EDUARDO","1201","723","1924"
"763","-75.20533036","10.33979065","12551",13647,"BOLIVAR","SAN ESTANISLAO","4381","10931","15312"
"764","-67.46266776","2.111626016","12151",94883,"GUAINIA","SAN FELIPE","1362","0","1362"
"765","-74.41177328","9.077031786","11983",13650,"BOLIVAR","SAN FERNANDO","10225","2740","12965"
"766","-74.97899991","5.859743644","11621",5652,"ANTIOQUIA","SAN FRANCISCO","4118","2277","6395"
"767","-73.13870921","6.544548751","12537",68679,"SANTANDER","SAN GIL","6432","37087","43519"
"768","-75.11719167","9.819493023","11655",13654,"BOLIVAR","SAN JACINTO","2276","19317","21593"
"769","-74.66475501","8.166059061","12638",13655,"BOLIVAR","SAN JACINTO DEL CAUCA","8342","2593","10935"
"770","-75.72720658","6.438226927","11871",5656,"ANTIOQUIA","SAN JERONIMO","8110","3517","11627"
"771","-72.87377047","6.441582988","12190",68682,"SANTANDER","SAN JOAQUIN","2200","748","2948"
"772","-75.8353567","5.073362413","11630",17665,"CALDAS","SAN JOSE","6041","1531","7572"
"773","-75.6975646","6.822048022","12486",5658,"ANTIOQUIA","SAN JOSE DE LA MONTANA","1002","2101","3103"
"774","-72.77361513","6.611116596","11858",68684,"SANTANDER","SAN JOSE DE MIRANDA","3919","936","4855"
"775","-73.55959716","5.976808862","11704",15664,"BOYACA","SAN JOSE DE PARE","4750","969","5719"
"776","-76.1655529","1.307808314","12239",18610,"CAQUETA","SAN JOSE DEL FRAGUA","9342","4540","13882"
"777","-71.91384906","2.354057104","12475",95001,"GUAVIARE","SAN JOSE DEL GUAVIARE","19131","34863","53994"
"778","-76.33791332","4.886985992","11893",27660,"CHOCO","SAN JOSE DEL PALMAR","3913","1155","5068"
"779","-73.81149022","3.211780272","11791",50683,"META","SAN JUAN DE ARAMA","5824","3394","9218"
"780","-75.19410217","9.284864581","12513",70702,"SUCRE","SAN JUAN DE BETULIA","6095","6283","12378"
"781","-74.68247864","4.830764974","12423",25662,"CUNDINAMARCA","SAN JUAN DE RIO SECO","6914","2878","9792"
"782","-76.51130612","8.683038935","12152",5659,"ANTIOQUIA","SAN JUAN DE URABA","14171","6728","20899"
"783","-73.06558864","10.78134065","12161",44650,"LA GUAJIRA","SAN JUAN DEL CESAR","12141","21513","33654"
"784","-75.07425826","9.949767812","11940",13657,"BOLIVAR","SAN JUAN NEPOMUCENO","8787","23727","32514"
"785","-73.69636103","4.429062443","12293",50686,"META","SAN JUANITO","1242","622","1864"
"786","-77.24599815","1.557308281","12634",52687,"NARINO","SAN LORENZO","16234","2164","18398"
"787","-74.96012524","6.003869676","11736",5660,"ANTIOQUIA","SAN LUIS","6303","4706","11009"
"788","-73.15099678","4.79325783","12605",15667,"BOYACA","SAN LUIS DE GACENO","4277","2106","6383"
"789","-71.5970583","5.205331722","11946",85325,"CASANARE","SAN LUIS DE PALENQUE","5559","1856","7415"
"790","-75.16779222","8.576287595","12590",70708,"SUCRE","SAN MARCOS","21175","29504","50679"
"791","-73.61078112","7.91372539","11638",20770,"CESAR","SAN MARTIN","9567","7745","17312"
"792","-74.04507747","8.805362422","12612",13667,"BOLIVAR","SAN MARTIN DE LOBA","8367","5881","14248"
"793","-72.57795923","6.377038308","11753",15673,"BOYACA","SAN MATEO","3319","1471","4790"
"794","-72.66509627","6.557174548","11679",68686,"SANTANDER","SAN MIGUEL","2275","408","2683"
"795","-73.77874177","5.524104802","11902",15676,"BOYACA","SAN MIGUEL DE SEMA","4133","479","4612"
"796","-75.50447484","9.805267332","11793",70713,"SUCRE","SAN ONOFRE","28251","18132","46383"
"797","-74.24468615","7.312723273","12665",13670,"BOLIVAR","SAN PABLO","6058","20952","27010"
"798","-74.13723602","5.666388051","11626",15681,"BOYACA","SAN PABLO DE BORBUR","9661","1263","10924"
"799","-75.0273093","9.409179971","12343",70717,"SUCRE","SAN PEDRO","5408","11007","16415"
"800","-77.12982492","1.555318001","11652",52694,"NARINO","SAN PEDRO DE CARTAGO","6439","612","7051"
"801","-76.31746466","8.422905048","11938",5665,"ANTIOQUIA","SAN PEDRO DE URABA","17093","11679","28772"
"802","-75.91078608","8.975106023","12432",23686,"CORDOBA","SAN PELAYO","32358","6902","39260"
"803","-75.01462847","6.303195011","12527",5667,"ANTIOQUIA","SAN RAFAEL","7128","6402","13530"
"804","-74.9524644","6.444204188","11974",5670,"ANTIOQUIA","SAN ROQUE","12256","5901","18157"
"805","-76.75025842","1.867203931","12284",19693,"CAUCA","SAN SEBASTIAN","11805","1015","12820"
"806","-74.21522909","9.332417299","12553",47692,"MAGDALENA","SAN SEBASTIAN DE BUENAVISTA","12099","5168","17267"
"807","-75.33638047","6.304428956","12495",5674,"ANTIOQUIA","SAN VICENTE","12615","6823","19438"
"808","-73.52244869","6.868160552","11633",68689,"SANTANDER","SAN VICENTE DE CHUCURI","20562","12705","33267"
"809","-74.46443132","1.686797975","11788",18753,"CAQUETA","SAN VICENTE DEL CAGUAN","25663","31011","56674"
"810","-74.36292019","9.308403343","11725",47703,"MAGDALENA","SAN ZENON","7277","1627","8904"
"811","-77.48283195","1.307223225","11857",52683,"NARINO","SANDONA","14550","10670","25220"
"812","-74.32030881","9.530134468","12455",47707,"MAGDALENA","SANTA ANA","11779","11456","23235"
"813","-72.93157442","6.938192816","11899",68705,"SANTANDER","SANTA BARBARA","1951","360","2311"
"814","-74.66383483","9.514657261","11590",47720,"MAGDALENA","SANTA BARBARA DE PINTO","4958","6150","11108"
"815","-75.28195237","10.68925595","12163",13673,"BOLIVAR","SANTA CATALINA","7744","4314","12058"
"816","-77.77375958","1.322877899","11915",52699,"NARINO","SANTACRUZ","16186","4484","20670"
"817","-75.91571317","6.535384257","11833",5042,"ANTIOQUIA","SANTAFE DE ANTIOQUIA","9267","13636","22903"
"818","-73.60036657","6.3969417","12582",68720,"SANTANDER","SANTA HELENA DEL OPON","3898","575","4473"
"819","-75.22390395","4.726264428","12390",73686,"TOLIMA","SANTA ISABEL","4298","2267","6565"
"820","-74.97750287","10.33867519","12167",8675,"ATLANTICO","SANTA LUCIA","1358","11060","12418"
"821","-73.28242697","4.793686428","12081",15690,"BOYACA","SANTA MARIA","2117","2518","4635"
"822","-73.91668304","11.10873821","11670",47001,"MAGDALENA","SANTA MARTA","30148","385122","415270"
"823","-75.35306388","10.43834545","12597",13683,"BOLIVAR","SANTA ROSA","5706","12489","18195"
"824","-75.57196825","4.832213408","12355",66682,"RISARALDA","SANTA ROSA DE CABAL","13631","56329","69960"
"825","-75.46002424","6.669882622","12002",5686,"ANTIOQUIA","SANTA ROSA DE OSOS","16322","14703","31025"
"826","-73.01343924","5.885155155","11903",15693,"BOYACA","SANTA ROSA DE VITERBO","6263","6986","13249"
"827","-74.27587905","7.697617558","12318",13688,"BOLIVAR","SANTA ROSA DEL SUR","20023","13992","34015"
"828","-70.65984765","5.021691762","12049",99624,"VICHADA","SANTA ROSALIA","1388","1862","3250"
"829","-73.62975398","5.702126994","12307",15696,"BOYACA","SANTA SOFIA","2343","778","3121"
"830","-73.51107469","6.044635922","12402",15686,"BOYACA","SANTANA","5642","2211","7853"
"831","-72.0025323","-1.181530186","12079",91669,"AMAZONAS","PUERTO SANTANDER","2373","0","2373"
"832","-76.53440547","2.988039092","11931",19698,"CAUCA","SANTANDER DE QUILICHAO","40031","40251","80282"
"833","-72.73753697","7.869308857","12173",54680,"NORTE DE SANTANDER","SANTIAGO","1503","1176","2679"
"834","-75.15464067","6.473477724","11795",5690,"ANTIOQUIA","SANTO DOMINGO","9368","2199","11567"
"835","-74.80094032","10.73184738","12217",8685,"ATLANTICO","SANTO TOMAS","1257","22617","23874"
"836","-75.26668426","6.123370075","11746",5697,"ANTIOQUIA","EL SANTUARIO","6457","19830","26287"
"837","-77.70660816","1.059541801","11865",52720,"NARINO","SAPUYES","5814","1659","7473"
"838","-71.88171021","6.88256716","11600",81736,"ARAUCA","SARAVENA","14222","28544","42766"
"839","-72.82039209","8.234241538","12276",54720,"NORTE DE SANTANDER","SARDINATA","14308","8425","22733"
"840","-74.42797316","4.928911161","12459",25718,"CUNDINAMARCA","SASAIMA","7973","2232","10205"
"841","-72.75320885","6.105846748","12625",15720,"BOYACA","SATIVANORTE","2185","590","2775"
"842","-72.74009314","6.046239449","12387",15723,"BOYACA","SATIVASUR","1041","310","1351"
"843","-74.65884695","7.247706925","12428",5736,"ANTIOQUIA","SEGOVIA","7023","28048","35071"
"844","-73.80044849","4.988264305","12421",25736,"CUNDINAMARCA","SESQUILE","7452","2365","9817"
"845","-75.89821139","4.192998304","12279",76736,"VALLE DEL CAUCA","SEVILLA","12811","35061","47872"
"846","-73.2344676","5.469038608","11872",15740,"BOYACA","SIACHOQUE","7489","1405","8894"
"847","-74.28288329","4.449078507","12356",25740,"CUNDINAMARCA","SIBATE","10487","21188","31675"
"848","-76.9601182","1.207359609","12113",86749,"PUTUMAYO","SIBUNDOY","4122","9148","13270"
"849","-72.81900911","7.147377322","12241",54743,"NORTE DE SANTANDER","SILOS","4344","940","5284"
"850","-74.38426609","4.425134016","12676",25743,"CUNDINAMARCA","SILVANIA","15702","5690","21392"
"851","-76.37642646","2.667773866","12606",19743,"CAUCA","SILVIA","26850","4110","30960"
"852","-73.71890566","6.648616709","12389",68745,"SANTANDER","SIMACOTA","6686","2224","8910"
"853","-73.86944012","5.504150101","11677",25745,"CUNDINAMARCA","SIMIJACA","5259","5758","11017"
"854","-73.97922228","7.816325509","12575",13744,"BOLIVAR","SIMITI","11734","6684","18418"
"855","-75.06732492","9.24582924","11591",70742,"SUCRE","SAN LUIS DE SINCE","8504","22144","30648"
"856","-75.42897861","9.310248032","12288",70001,"SUCRE","SINCELEJO","17979","219639","237618"
"857","-76.58814696","4.554898455","11826",27745,"CHOCO","SIPI","3188","293","3481"
"858","-74.64154619","10.86688752","12267",47745,"MAGDALENA","SITIONUEVO","13832","13035","26867"
"859","-74.25226583","4.528749252","12535",25754,"CUNDINAMARCA","SOACHA","5452","396555","402007"
"860","-72.7242319","6.299658854","11955",15753,"BOYACA","SOATA","3561","5752","9313"
"861","-72.70072815","5.929258578","12542",15757,"BOYACA","SOCHA","3988","3605","7593"
"862","-73.2550225","6.456464634","11837",68755,"SANTANDER","SOCORRO","6079","22997","29076"
"863","-72.58113096","5.908995895","12464",15755,"BOYACA","SOCOTA","9170","1125","10295"
"864","-72.91190101","5.640116761","12592",15759,"BOYACA","SOGAMOSO","20266","96828","117094"
"865","-73.27597232","0.228419879","12229",18756,"CAQUETA","SOLANO","17569","1858","19427"
"866","-74.78784967","10.89984267","12401",8758,"ATLANTICO","SOLEDAD","855","460996","461851"
"867","-75.78795238","0.953978438","12393",18785,"CAQUETA","SOLITA","6087","3047","9134"
"868","-73.46036992","4.92464839","12191",15761,"BOYACA","SOMONDOCO","3598","761","4359"
"869","-75.08079281","5.74690904","11839",5756,"ANTIOQUIA","SONSON","23196","15583","38779"
"870","-75.7626273","6.515212754","12648",5761,"ANTIOQUIA","SOPETRAN","7431","5954","13385"
"871","-75.11926586","10.31074672","12532",13760,"BOLIVAR","SOPLAVIENTO","321","7960","8281"
"872","-73.9861621","4.871573225","12450",25758,"CUNDINAMARCA","SOPO","8389","12834","21223"
"873","-73.49703457","5.573997832","12232",15762,"BOYACA","SORA","2507","469","2976"
"874","-73.34743562","5.457654224","12323",15764,"BOYACA","SORACA","5215","730","5945"
"875","-73.28594006","5.761790891","12311",15763,"BOYACA","SOTAQUIRA","8245","721","8966"
"876","-76.64739622","2.245067649","11808",19760,"CAUCA","SOTARA","15305","391","15696"
"877","-73.37008445","6.082220992","12338",68770,"SANTANDER","SUAITA","9006","1969","10975"
"878","-74.91998753","10.29770324","11784",8770,"ATLANTICO","SUAN","486","9216","9702"
"879","-74.83622887","4.047827745","11685",73770,"TOLIMA","SUAREZ","2574","1945","4519"
"880","-75.82878147","1.888441538","11814",41770,"HUILA","SUAZA","11092","3264","14356"
"881","-74.17563219","4.950357035","11578",25769,"CUNDINAMARCA","SUBACHOQUE","8040","5001","13041"
"882","-74.75516668","8.812922754","12520",70771,"SUCRE","SUCRE","15579","6884","22463"
"883","-73.80360007","5.12612056","12064",25772,"CUNDINAMARCA","SUESCA","7841","6401","14242"
"884","-74.24784058","5.044558542","12077",25777,"CUNDINAMARCA","SUPATA","3561","1391","4952"
"885","-75.67280898","5.434970197","11821",17777,"CALDAS","SUPIA","12912","11935","24847"
"886","-73.0590229","7.516957518","12097",68780,"SANTANDER","SURATA","2990","672","3662"
"887","-73.84786377","5.427000058","11700",25779,"CUNDINAMARCA","SUSA","5193","4589","9782"
"888","-72.75672432","6.186068376","11596",15774,"BOYACA","SUSACON","2755","943","3698"
"889","-73.6524926","5.615493479","12187",15776,"BOYACA","SUTAMARCHAN","4866","1254","6120"
"890","-73.87912911","5.228980572","12270",25781,"CUNDINAMARCA","SUTATAUSA","3383","1359","4742"
"891","-73.45454379","4.99644019","12038",15778,"BOYACA","SUTATENZA","3823","743","4566"
"892","-74.10208849","4.935124391","12108",25785,"CUNDINAMARCA","TABIO","11569","9281","20850"
"893","-76.45608175","5.274994877","11803",27787,"CHOCO","TADO","6795","11246","18041"
"894","-74.65587178","9.32011432","12541",13780,"BOLIVAR","TALAIGUA NUEVO","6219","4867","11086"
"895","-73.78105953","8.864240897","12093",20787,"CESAR","TAMALAMEQUE","8869","5177","14046"
"896","-72.24096022","5.857198771","11782",85400,"CASANARE","TAMARA","5096","2022","7118"
"897","-71.76805443","6.356920495","12647",81794,"ARAUCA","TAME","28442","19134","47576"
"898","-75.72170621","5.670343576","12398",5789,"ANTIOQUIA","TAMESIS","9899","6488","16387"
"899","-77.35521797","1.59388354","12396",52786,"NARINO","TAMINANGO","13709","3509","17218"
"900","-77.3864499","1.09190246","12550",52788,"NARINO","TANGUA","8751","2141","10892"
"901","-69.90809534","-0.759267861","11734",97666,"VAUPES","TARAIRA","873","175","1048"
"902","-70.01144885","-2.565344912","11707",91798,"AMAZONAS","TARAPACA","3775","0","3775"
"903","-75.5049078","7.493027716","12680",5790,"ANTIOQUIA","TARAZA","15091","17852","32943"
"904","-75.89284314","2.133993543","12346",41791,"HUILA","TARQUI","11614","4300","15914"
"905","-75.84655635","5.868971822","11586",5792,"ANTIOQUIA","TARSO","3994","3161","7155"
"906","-72.75386231","5.848162813","12365",15790,"BOYACA","TASCO","5083","1842","6925"
"907","-72.65069568","4.664479894","12478",85410,"CASANARE","TAURAMENA","6086","10153","16239"
"908","-73.96940764","5.176373806","11809",25793,"CUNDINAMARCA","TAUSA","6919","796","7715"
"909","-75.07932451","3.041199493","12319",41799,"HUILA","TELLO","7927","5626","13553"
"910","-74.38989447","4.666488523","12567",25797,"CUNDINAMARCA","TENA","6872","697","7569"
"911","-74.73451105","9.914399268","12353",47798,"MAGDALENA","TENERIFE","6936","5614","12550"
"912","-74.16568398","4.823191298","12052",25799,"CUNDINAMARCA","TENJO","10582","7884","18466"
"913","-73.45505167","5.036761614","11705",15798,"BOYACA","TENZA","3445","1206","4651"
"914","-73.16951807","8.747706773","11742",54800,"NORTE DE SANTANDER","TEORAMA","15361","2162","17523"
"915","-75.71134006","2.843228142","11709",41801,"HUILA","TERUEL","4145","4081","8226"
"916","-75.715463","2.53524125","11776",41797,"HUILA","TESALIA","4019","4855","8874"
"917","-74.5163928","4.306063058","11950",25805,"CUNDINAMARCA","TIBACUY","4261","582","4843"
"918","-73.42777948","5.284600519","11862",15804,"BOYACA","TIBANA","8165","1546","9711"
"919","-73.02982033","5.718110715","12057",15806,"BOYACA","TIBASOSA","8442","4184","12626"
"920","-73.54001798","5.059928906","12101",25807,"CUNDINAMARCA","TIBIRITA","2513","505","3018"
"921","-72.83301236","8.676633138","12342",54810,"NORTE DE SANTANDER","TIBU","22848","11925","34773"
"922","-76.17713132","7.805740478","11755",23807,"CORDOBA","TIERRALTA","45895","32875","78770"
"923","-75.97340989","1.912021423","12684",41807,"HUILA","TIMANA","13327","6698","20025"
"924","-76.77186934","2.369964598","12572",19807,"CAUCA","TIMBIO","19110","10918","30028"
"925","-78.23215225","3.005629573","12695",19809,"CAUCA","TIMBIQUI","17424","4310","21734"
"926","-73.71052511","5.566377686","12224",15808,"BOYACA","TINJACA","2527","412","2939"
"927","-72.72189721","6.396913539","12430",15810,"BOYACA","TIPACOQUE","2902","953","3855"
"928","-74.30625813","8.478012398","12471",13810,"BOLIVAR","TIQUISIO","14360","4426","18786"
"929","-75.81856413","6.056348788","12489",5809,"ANTIOQUIA","TITIRIBI","6558","6759","13317"
"930","-73.18540197","5.558229537","11721",15814,"BOYACA","TOCA","7139","3422","10561"
"931","-74.66640436","4.436928215","11763",25815,"CUNDINAMARCA","TOCAIMA","7220","9976","17196"
"932","-73.94827004","4.948100828","11775",25817,"CUNDINAMARCA","TOCANCIPA","14532","9622","24154"
"933","-73.51365805","5.894339626","12500",15816,"BOYACA","TOGUI","4514","715","5229"
"934","-72.33902509","7.20793993","11730",54820,"NORTE DE SANTANDER","TOLEDO","13006","4266","17272"
"935","-75.54536923","9.520611149","12221",70820,"SUCRE","SANTIAGO DE TOLU","5790","22318","28108"
"936","-75.44213635","9.489281558","12001",70823,"SUCRE","TOLU VIEJO","13630","5325","18955"
"937","-72.96558089","7.157277584","11945",68820,"SANTANDER","TONA","6181","509","6690"
"938","-72.85454739","5.735337842","12015",15820,"BOYACA","TOPAGA","2428","1255","3683"
"939","-74.31327013","5.338844164","11643",25823,"CUNDINAMARCA","TOPAIPI","4106","711","4817"
"940","-76.21804385","2.987862867","11769",19821,"CAUCA","TORIBIO","24811","1701","26512"
"941","-76.1307808","4.622154531","11900",76823,"VALLE DEL CAUCA","TORO","6426","9487","15913"
"942","-73.03228637","5.449136182","11956",15822,"BOYACA","TOTA","5084","592","5676"
"943","-76.41435963","2.462673563","11617",19824,"CAUCA","TOTORO","16078","1352","17430"
"944","-71.1967868","5.342000793","11691",85430,"CASANARE","TRINIDAD","5345","6133","11478"
"945","-76.38639916","4.206471078","11859",76828,"VALLE DEL CAUCA","TRUJILLO","11201","7466","18667"
"946","-74.98476837","10.89985889","12403",8832,"ATLANTICO","TUBARA","4824","6091","10915"
"947","-76.0343783","4.027010439","11611",76834,"VALLE DEL CAUCA","TULUA","26353","160922","187275"
"948","-78.69433133","1.587093424","11810",52835,"NARINO","SAN ANDRES DE TUMACO","75366","84668","160034"
"949","-73.41675727","5.51330144","11930",15001,"BOYACA","TUNJA","7475","146621","154096"
"950","-73.95875832","5.708028573","12153",15832,"BOYACA","TUNUNGUA","1332","288","1620"
"951","-77.67034728","1.160049195","12109",52838,"NARINO","TUQUERRES","24995","16385","41380"
"952","-75.37586545","10.32500332","11921",13836,"BOLIVAR","TURBACO","5332","57714","63046"
"953","-75.43865344","10.20661697","12141",13838,"BOLIVAR","TURBANA","1558","11935","13493"
"954","-76.73758234","8.004211403","12561",5837,"ANTIOQUIA","TURBO","74660","47259","121919"
"955","-73.53457526","5.272624568","12127",15835,"BOYACA","TURMEQUE","5148","2434","7582"
"956","-73.21398928","5.645889053","11637",15837,"BOYACA","TUTA","6808","2176","8984"
"957","-72.8796334","6.051330591","12505",15839,"BOYACA","TUTAZA","2058","196","2254"
"958","-73.49867345","4.786126712","12696",25839,"CUNDINAMARCA","UBALA","9438","1280","10718"
"959","-73.99659508","4.484354457","12059",25841,"CUNDINAMARCA","UBAQUE","6015","864","6879"
"960","-73.84422869","5.297692412","12133",25843,"CUNDINAMARCA","VILLA DE SAN DIEGO DE UBATE","14391","22042","36433"
"961","-75.81803948","4.697216003","12435",76845,"VALLE DEL CAUCA","ULLOA","3087","2658","5745"
"962","-73.48340596","5.184111061","11768",15842,"BOYACA","UMBITA","8540","1565","10105"
"963","-74.06204823","4.341851602","12211",25845,"CUNDINAMARCA","UNE","4298","3716","8014"
"964","-77.11285371","8.105915987","11771",27800,"CHOCO","UNGUIA","10275","4269","14544"
"965","-76.6589321","5.249631543","11632",27810,"CHOCO","UNION PANAMERICANA","4965","3196","8161"
"966","-76.11097134","6.96010748","12205",5842,"ANTIOQUIA","URAMITA","5927","2377","8304"
"967","-74.45686604","3.011769345","12652",50370,"META","URIBE","9811","2669","12480"
"968","-71.79661457","11.99139953","12552",44847,"LA GUAJIRA","URIBIA","110055","7619","117674"
"969","-76.26583153","6.342301946","12166",5847,"ANTIOQUIA","URRAO","23798","15125","38923"
"970","-72.9842256","10.47993267","12060",44855,"LA GUAJIRA","URUMITA","5928","7421","13349"
"971","-74.99583487","10.740263","11996",8849,"ATLANTICO","USIACURI","847","7957","8804"
"972","-74.50133452","5.169776622","12416",25851,"CUNDINAMARCA","UTICA","2367","2574","4941"
"973","-75.39568841","7.273885659","11939",5854,"ANTIOQUIA","VALDIVIA","12442","4848","17290"
"974","-76.2233103","8.228316272","12120",23855,"CORDOBA","VALENCIA","21999","12374","34373"
"975","-73.12946454","6.419835005","11695",68855,"SANTANDER","VALLE DE SAN JOSE","3497","1818","5315"
"976","-75.19391733","4.171989388","12178",73854,"TOLIMA","VALLE DE SAN JUAN","3708","2470","6178"
"977","-76.95174341","0.392233394","11973",86865,"PUTUMAYO","VALLE DEL GUAMUEZ","27618","17341","44959"
"978","-73.43551784","10.43566034","12025",20001,"CESAR","VALLEDUPAR","55384","299065","354449"
"979","-75.65950851","5.630761117","12487",5856,"ANTIOQUIA","VALPARAISO","3155","3169","6324"
"980","-74.78696593","6.816655844","11920",5858,"ANTIOQUIA","VEGACHI","4824","6469","11293"
"981","-73.72583336","6.232810978","12498",68861,"SANTANDER","VELEZ","10065","9690","19755"
"982","-74.93668821","4.691769189","12066",73861,"TOLIMA","VENADILLO","5445","13324","18769"
"983","-75.79904468","5.954168611","11868",5861,"ANTIOQUIA","VENECIA","7263","6156","13419"
"984","-73.55031893","5.359872952","12626",15861,"BOYACA","VENTAQUEMADA","12440","1964","14404"
"985","-74.32563434","5.112382175","11958",25862,"CUNDINAMARCA","VERGARA","6455","1275","7730"
"986","-76.33852048","4.608055969","12583",76863,"VALLE DEL CAUCA","VERSALLES","4215","4055","8270"
"987","-72.93287188","7.335391333","12278",68867,"SANTANDER","VETAS","1180","1169","2349"
"988","-74.57537778","4.88149096","11887",25867,"CUNDINAMARCA","VIANI","2899","1216","4115"
"989","-74.87365204","5.426281444","12158",17867,"CALDAS","VICTORIA","5437","3728","9165"
"990","-76.68829693","6.442959271","11699",5873,"ANTIOQUIA","VIGIA DEL FUERTE","3365","2122","5487"
"991","-76.49363391","3.732818472","12384",76869,"VALLE DEL CAUCA","VIJES","3930","5857","9787"
"992","-73.00671809","7.915562928","12249",54871,"NORTE DE SANTANDER","VILLA CARO","3272","1772","5044"
"993","-73.54899608","5.634789039","12458",15407,"BOYACA","VILLA DE LEYVA","5213","6819","12032"
"994","-72.52355022","7.755445373","12439",54874,"NORTE DE SANTANDER","VILLA DEL ROSARIO","3079","66754","69833"
"995","-76.49113721","3.179422859","12399",19845,"CAUCA","VILLA RICA","3976","10350","14326"
"996","-76.72794567","0.896634401","12643",86885,"PUTUMAYO","VILLAGARZON","11716","9069","20785"
"997","-74.20982714","5.247921482","11687",25871,"CUNDINAMARCA","VILLAGOMEZ","1563","620","2183"
"998","-75.19033115","4.942093611","12554",73870,"TOLIMA","VILLAHERMOSA","7750","3446","11196"
"999","-75.46445222","4.938706934","11743",17873,"CALDAS","VILLAMARIA","9655","36667","46322"
"1000","-72.97394599","10.57096436","12580",44874,"LA GUAJIRA","VILLANUEVA","5327","18211","23538"
"1001","-73.60535966","5.208820159","11622",25873,"CUNDINAMARCA","VILLAPINZON","11216","5357","16573"
"1002","-74.64962255","3.821683178","11781",73873,"TOLIMA","VILLARRICA","3854","2372","6226"
"1003","-73.49149722","4.07423647","12312",50001,"META","VILLAVICENCIO","23758","356464","380222"
"1004","-75.1619153","3.265071695","11856",41872,"HUILA","VILLAVIEJA","4937","2437","7374"
"1005","-74.50497893","5.000092333","12017",25875,"CUNDINAMARCA","VILLETA","9566","14774","24340"
"1006","-74.5081051","4.420549547","11579",25878,"CUNDINAMARCA","VIOTA","9410","4157","13567"
"1007","-73.2983879","5.41566885","11692",15879,"BOYACA","VIRACACHA","3096","381","3477"
"1008","-73.65331597","2.787644025","12395",50711,"META","VISTAHERMOSA","14882","6166","21048"
"1009","-75.91924426","5.045097131","12490",17877,"CALDAS","VITERBO","2470","10689","13159"
"1010","-74.38777764","5.573724288","11764",25885,"CUNDINAMARCA","YACOPI","13108","3303","16411"
"1011","-77.44198557","1.161120799","12256",52885,"NARINO","YACUANQUER","7562","2403","9965"
"1012","-75.53223629","2.635280874","12246",41885,"HUILA","YAGUARA","1231","6634","7865"
"1013","-74.790176","6.702571223","11642",5885,"ANTIOQUIA","YALI","4753","2981","7734"
"1014","-75.46779615","6.988398376","11629",5887,"ANTIOQUIA","YARUMAL","14637","26603","41240"
"1015","-69.6495678","0.79163546","11831",97889,"VAUPES","YAVARATE","1269","0","1269"
"1016","-74.93871772","6.633963239","11592",5890,"ANTIOQUIA","YOLOMBO","13934","6091","20025"
"1017","-74.17685548","6.90737842","12620",5893,"ANTIOQUIA","YONDO","7917","7180","15097"
"1018","-72.27868822","5.218286442","12184",85001,"CASANARE","YOPAL","16604","90218","106822"
"1019","-76.42493434","3.931698105","11953",76890,"VALLE DEL CAUCA","YOTOCO","8006","7557","15563"
"1020","-76.54377797","3.569908503","12367",76892,"VALLE DEL CAUCA","YUMBO","11265","80927","92192"
"1021","-74.90192614","9.74129234","12409",13894,"BOLIVAR","ZAMBRANO","1286","9824","11110"
"1022","-73.29587308","6.818452967","12412",68895,"SANTANDER","ZAPATOCA","3663","5786","9449"
"1023","-74.69671282","10.12147093","12083",47960,"MAGDALENA","ZAPAYAN","5452","3190","8642"
"1024","-74.87564682","7.482904123","11772",5895,"ANTIOQUIA","ZARAGOZA","14357","12602","26959"
"1025","-76.09686555","4.359757643","12280",76895,"VALLE DEL CAUCA","ZARZAL","12184","28799","40983"
"1026","-73.18276118","5.258241337","11848",15897,"BOYACA","ZETAQUIRA","4149","1022","5171"
"1027","-74.41186301","4.742695519","11873",25898,"CUNDINAMARCA","ZIPACON","3310","1706","5016"
"1028","-74.04205484","5.026321531","12417",25899,"CUNDINAMARCA","ZIPAQUIRA","13024","88527","101551"
"1029","-74.18252179","10.79877525","11780",47980,"MAGDALENA","ZONA BANANERA","52765","4239","57004"
